category,location_type,location,context,outcome_status,persistent_id,id,location_subtype,month
anti-social-behaviour,Force,"{'latitude': '51.513575', 'street': {'id': 1676335, 'name': 'On or near Pollen Street'}, 'longitude': '-0.142373'}",,,,123060208,,2024-05
anti-social-behaviour,Force,"{'latitude': '51.511783', 'street': {'id': 1678199, 'name': 'On or near Nightclub'}, 'longitude': '-0.129778'}",,,,123052832,,2024-05
anti-social-behaviour,Force,"{'latitude': '51.496053', 'street': {'id': 1678355, 'name': ""On or near Bennett's Yard""}, 'longitude': '-0.128521'}",,,,123060424,,2024-05
anti-social-behaviour,Force,"{'latitude': '51.509396', 'street': {'id': 1678091, 'name': 'On or near Orange Street'}, 'longitude': '-0.130626'}",,,,123060609,,2024-05
anti-social-behaviour,Force,"{'latitude': '51.496466', 'street': {'id': 1676405, 'name': 'On or near Shopping Area'}, 'longitude': '-0.141499'}",,,,123085901,,2024-05
anti-social-behaviour,Force,"{'latitude': '51.500978', 'street': {'id': 1678704, 'name': 'On or near Bridge Street'}, 'longitude': '-0.125524'}",,,,123085819,,2024-05
anti-social-behaviour,Force,"{'latitude': '51.502888', 'street': {'id': 1679979, 'name': 'On or near Chicheley Street'}, 'longitude': '-0.117319'}",,,,123085605,,2024-05
anti-social-behaviour,Force,"{'latitude': '51.510295', 'street': {'id': 1677826, 'name': 'On or near Coventry Street'}, 'longitude': '-0.132318'}",,,,123085601,,2024-05
anti-social-behaviour,Force,"{'latitude': '51.518897', 'street': {'id': 1680092, 'name': 'On or near Red Lion Street'}, 'longitude': '-0.116904'}",,,,123060775,,2024-05
anti-social-behaviour,Force,"{'latitude': '51.495129', 'street': {'id': 1676936, 'name': 'On or near Francis Street'}, 'longitude': '-0.138240'}",,,,123097859,,2024-05
anti-social-behaviour,Force,"{'latitude': '51.508087', 'street': {'id': 1678961, 'name': 'On or near Nightclub'}, 'longitude': '-0.124122'}",,,,123060789,,2024-05
anti-social-behaviour,Force,"{'latitude': '51.514537', 'street': {'id': 1678431, 'name': 'On or near St Giles Passage'}, 'longitude': '-0.128196'}",,,,123061019,,2024-05
anti-social-behaviour,Force,"{'latitude': '51.494818', 'street': {'id': 1679973, 'name': 'On or near Pratt Walk'}, 'longitude': '-0.117089'}",,,,123061050,,2024-05
anti-social-behaviour,Force,"{'latitude': '51.510389', 'street': {'id': 1679043, 'name': 'On or near Bedford Street'}, 'longitude': '-0.124157'}",,,,123078654,,2024-05
anti-social-behaviour,Force,"{'latitude': '51.509786', 'street': {'id': 1678937, 'name': 'On or near Police Station'}, 'longitude': '-0.124658'}",,,,123061231,,2024-05
anti-social-behaviour,Force,"{'latitude': '51.496949', 'street': {'id': 1677316, 'name': 'On or near Artillery Row'}, 'longitude': '-0.135630'}",,,,123061321,,2024-05
anti-social-behaviour,Force,"{'latitude': '51.520963', 'street': {'id': 1677791, 'name': 'On or near Chenies Street'}, 'longitude': '-0.132530'}",,,,123061364,,2024-05
anti-social-behaviour,Force,"{'latitude': '51.507725', 'street': {'id': 1678750, 'name': 'On or near Corner House Street'}, 'longitude': '-0.125708'}",,,,123061639,,2024-05
anti-social-behaviour,Force,"{'latitude': '51.514247', 'street': {'id': 1676736, 'name': 'On or near Great Marlborough Street'}, 'longitude': '-0.139406'}",,,,123061813,,2024-05
anti-social-behaviour,Force,"{'latitude': '51.511018', 'street': {'id': 1677271, 'name': 'On or near Sherwood Street'}, 'longitude': '-0.135963'}",,,,123059407,,2024-05
anti-social-behaviour,Force,"{'latitude': '51.510952', 'street': {'id': 1677471, 'name': 'On or near Great Windmill Street'}, 'longitude': '-0.134064'}",,,,123062035,,2024-05
anti-social-behaviour,Force,"{'latitude': '51.496949', 'street': {'id': 1677316, 'name': 'On or near Artillery Row'}, 'longitude': '-0.135630'}",,,,123062336,,2024-05
anti-social-behaviour,Force,"{'latitude': '51.511534', 'street': {'id': 1678076, 'name': 'On or near Lisle Street'}, 'longitude': '-0.130495'}",,,,123078606,,2024-05
anti-social-behaviour,Force,"{'latitude': '51.511574', 'street': {'id': 1678643, 'name': 'On or near Garrick Street'}, 'longitude': '-0.126271'}",,,,123062342,,2024-05
anti-social-behaviour,Force,"{'latitude': '51.498053', 'street': {'id': 1678128, 'name': 'On or near Great Smith Street'}, 'longitude': '-0.129879'}",,,,123062383,,2024-05
anti-social-behaviour,Force,"{'latitude': '51.517596', 'street': {'id': 1677320, 'name': 'On or near Newman Street'}, 'longitude': '-0.135680'}",,,,123068606,,2024-05
anti-social-behaviour,Force,"{'latitude': '51.517596', 'street': {'id': 1677320, 'name': 'On or near Newman Street'}, 'longitude': '-0.135680'}",,,,123068616,,2024-05
anti-social-behaviour,Force,"{'latitude': '51.511137', 'street': {'id': 1678783, 'name': 'On or near New Row'}, 'longitude': '-0.125914'}",,,,123072779,,2024-05
anti-social-behaviour,Force,"{'latitude': '51.492976', 'street': {'id': 1677806, 'name': 'On or near Vincent Street'}, 'longitude': '-0.131211'}",,,,123072784,,2024-05
anti-social-behaviour,Force,"{'latitude': '51.501162', 'street': {'id': 1680084, 'name': 'On or near Addington Street'}, 'longitude': '-0.116252'}",,,,123059147,,2024-05
anti-social-behaviour,Force,"{'latitude': '51.520467', 'street': {'id': 1679377, 'name': 'On or near Old Gloucester Street'}, 'longitude': '-0.121711'}",,,,123059144,,2024-05
anti-social-behaviour,Force,"{'latitude': '51.513064', 'street': {'id': 1678198, 'name': 'On or near Shaftesbury Avenue'}, 'longitude': '-0.129438'}",,,,123059132,,2024-05
anti-social-behaviour,Force,"{'latitude': '51.519375', 'street': {'id': 1677066, 'name': 'On or near Goodge Place'}, 'longitude': '-0.136689'}",,,,123078506,,2024-05
anti-social-behaviour,Force,"{'latitude': '51.518456', 'street': {'id': 1677599, 'name': 'On or near Percy Street'}, 'longitude': '-0.133209'}",,,,123098085,,2024-05
anti-social-behaviour,Force,"{'latitude': '51.520963', 'street': {'id': 1677791, 'name': 'On or near Chenies Street'}, 'longitude': '-0.132530'}",,,,123059096,,2024-05
anti-social-behaviour,Force,"{'latitude': '51.517596', 'street': {'id': 1677320, 'name': 'On or near Newman Street'}, 'longitude': '-0.135680'}",,,,123059088,,2024-05
anti-social-behaviour,Force,"{'latitude': '51.500978', 'street': {'id': 1678704, 'name': 'On or near Bridge Street'}, 'longitude': '-0.125524'}",,,,123058976,,2024-05
anti-social-behaviour,Force,"{'latitude': '51.517563', 'street': {'id': 1677662, 'name': 'On or near Stephen Street'}, 'longitude': '-0.133001'}",,,,123052886,,2024-05
anti-social-behaviour,Force,"{'latitude': '51.495936', 'street': {'id': 1676456, 'name': 'On or near Carlisle Place'}, 'longitude': '-0.141491'}",,,,123076377,,2024-05
anti-social-behaviour,Force,"{'latitude': '51.511790', 'street': {'id': 1677744, 'name': 'On or near A401'}, 'longitude': '-0.132459'}",,,,123058912,,2024-05
anti-social-behaviour,Force,"{'latitude': '51.514286', 'street': {'id': 1677663, 'name': 'On or near Chapone Place'}, 'longitude': '-0.132818'}",,,,123078418,,2024-05
anti-social-behaviour,Force,"{'latitude': '51.512300', 'street': {'id': 1678389, 'name': 'On or near Theatre/concert Hall'}, 'longitude': '-0.128388'}",,,,123058796,,2024-05
anti-social-behaviour,Force,"{'latitude': '51.507725', 'street': {'id': 1678750, 'name': 'On or near Corner House Street'}, 'longitude': '-0.125708'}",,,,123078115,,2024-05
anti-social-behaviour,Force,"{'latitude': '51.512059', 'street': {'id': 1679743, 'name': 'On or near A301'}, 'longitude': '-0.118929'}",,,,123077886,,2024-05
anti-social-behaviour,Force,"{'latitude': '51.499692', 'street': {'id': 1680405, 'name': 'On or near Westminster Bridge Road'}, 'longitude': '-0.114266'}",,,,123077884,,2024-05
anti-social-behaviour,Force,"{'latitude': '51.510942', 'street': {'id': 1677925, 'name': 'On or near Leicester Street'}, 'longitude': '-0.131196'}",,,,123058672,,2024-05
anti-social-behaviour,Force,"{'latitude': '51.492976', 'street': {'id': 1677806, 'name': 'On or near Vincent Street'}, 'longitude': '-0.131211'}",,,,123077629,,2024-05
anti-social-behaviour,Force,"{'latitude': '51.492976', 'street': {'id': 1677806, 'name': 'On or near Vincent Street'}, 'longitude': '-0.131211'}",,,,123058630,,2024-05
anti-social-behaviour,Force,"{'latitude': '51.511359', 'street': {'id': 1675825, 'name': 'On or near Grosvenor Hill'}, 'longitude': '-0.146095'}",,,,123072836,,2024-05
anti-social-behaviour,Force,"{'latitude': '51.506632', 'street': {'id': 1678507, 'name': 'On or near Theatre/concert Hall'}, 'longitude': '-0.127640'}",,,,123077347,,2024-05
anti-social-behaviour,Force,"{'latitude': '51.517742', 'street': {'id': 1678770, 'name': 'On or near Little Russell Street'}, 'longitude': '-0.125614'}",,,,123077253,,2024-05
anti-social-behaviour,Force,"{'latitude': '51.506138', 'street': {'id': 1678957, 'name': 'On or near Whitehall Place'}, 'longitude': '-0.124836'}",,,,123077020,,2024-05
anti-social-behaviour,Force,"{'latitude': '51.515004', 'street': {'id': 1678816, 'name': 'On or near B401'}, 'longitude': '-0.125352'}",,,,123058466,,2024-05
anti-social-behaviour,Force,"{'latitude': '51.510450', 'street': {'id': 1678780, 'name': 'On or near Bedfordbury'}, 'longitude': '-0.125726'}",,,,123076285,,2024-05
anti-social-behaviour,Force,"{'latitude': '51.515598', 'street': {'id': 1678536, 'name': 'On or near St Giles High Street'}, 'longitude': '-0.127633'}",,,,123058438,,2024-05
anti-social-behaviour,Force,"{'latitude': '51.495936', 'street': {'id': 1676456, 'name': 'On or near Carlisle Place'}, 'longitude': '-0.141491'}",,,,123072840,,2024-05
anti-social-behaviour,Force,"{'latitude': '51.511856', 'street': {'id': 1678534, 'name': 'On or near Great Newport Street'}, 'longitude': '-0.127570'}",,,,123062711,,2024-05
anti-social-behaviour,Force,"{'latitude': '51.513575', 'street': {'id': 1676335, 'name': 'On or near Pollen Street'}, 'longitude': '-0.142373'}",,,,123062819,,2024-05
anti-social-behaviour,Force,"{'latitude': '51.508202', 'street': {'id': 1677075, 'name': 'On or near Ormond Yard'}, 'longitude': '-0.136410'}",,,,123091402,,2024-05
anti-social-behaviour,Force,"{'latitude': '51.508087', 'street': {'id': 1678961, 'name': 'On or near Nightclub'}, 'longitude': '-0.124122'}",,,,123062900,,2024-05
anti-social-behaviour,Force,"{'latitude': '51.496949', 'street': {'id': 1677316, 'name': 'On or near Artillery Row'}, 'longitude': '-0.135630'}",,,,123065229,,2024-05
anti-social-behaviour,Force,"{'latitude': '51.514064', 'street': {'id': 1679774, 'name': 'On or near Kean Street'}, 'longitude': '-0.118890'}",,,,123063058,,2024-05
anti-social-behaviour,Force,"{'latitude': '51.511623', 'street': {'id': 1678738, 'name': 'On or near Rose Street'}, 'longitude': '-0.125951'}",,,,123063107,,2024-05
anti-social-behaviour,Force,"{'latitude': '51.516351', 'street': {'id': 1679201, 'name': 'On or near Stukeley Street'}, 'longitude': '-0.122976'}",,,,123076153,,2024-05
anti-social-behaviour,Force,"{'latitude': '51.497540', 'street': {'id': 1677294, 'name': 'On or near Victoria Street'}, 'longitude': '-0.135490'}",,,,123063707,,2024-05
anti-social-behaviour,Force,"{'latitude': '51.515984', 'street': {'id': 1679703, 'name': 'On or near Conference/exhibition Centre'}, 'longitude': '-0.118595'}",,,,123063316,,2024-05
anti-social-behaviour,Force,"{'latitude': '51.496440', 'street': {'id': 1677223, 'name': 'On or near Spencer Place'}, 'longitude': '-0.135867'}",,,,123063771,,2024-05
anti-social-behaviour,Force,"{'latitude': '51.513205', 'street': {'id': 1678985, 'name': 'On or near Long Acre'}, 'longitude': '-0.124229'}",,,,123068660,,2024-05
anti-social-behaviour,Force,"{'latitude': '51.499488', 'street': {'id': 1679222, 'name': 'On or near Hospital'}, 'longitude': '-0.118410'}",,,,123068751,,2024-05
anti-social-behaviour,Force,"{'latitude': '51.509491', 'street': {'id': 1678539, 'name': 'On or near William Iv Street'}, 'longitude': '-0.125924'}",,,,123068795,,2024-05
anti-social-behaviour,Force,"{'latitude': '51.510433', 'street': {'id': 1676487, 'name': 'On or near Parking Area'}, 'longitude': '-0.140455'}",,,,123068987,,2024-05
anti-social-behaviour,Force,"{'latitude': '51.513064', 'street': {'id': 1678198, 'name': 'On or near Shaftesbury Avenue'}, 'longitude': '-0.129438'}",,,,123069013,,2024-05
anti-social-behaviour,Force,"{'latitude': '51.509491', 'street': {'id': 1678539, 'name': 'On or near William Iv Street'}, 'longitude': '-0.125924'}",,,,123063809,,2024-05
anti-social-behaviour,Force,"{'latitude': '51.514211', 'street': {'id': 1678632, 'name': 'On or near Monmouth Street'}, 'longitude': '-0.126984'}",,,,123069244,,2024-05
anti-social-behaviour,Force,"{'latitude': '51.515088', 'street': {'id': 1676649, 'name': 'On or near Hills Place'}, 'longitude': '-0.140222'}",,,,123069425,,2024-05
anti-social-behaviour,Force,"{'latitude': '51.495415', 'street': {'id': 1678026, 'name': 'On or near Monck Street'}, 'longitude': '-0.130794'}",,,,123063824,,2024-05
anti-social-behaviour,Force,"{'latitude': '51.497497', 'street': {'id': 1677447, 'name': 'On or near Strutton Ground'}, 'longitude': '-0.133922'}",,,,123069701,,2024-05
anti-social-behaviour,Force,"{'latitude': '51.513601', 'street': {'id': 1677939, 'name': 'On or near Frith Street'}, 'longitude': '-0.131534'}",,,,123069937,,2024-05
anti-social-behaviour,Force,"{'latitude': '51.496238', 'street': {'id': 1678531, 'name': 'On or near Smith Square'}, 'longitude': '-0.127130'}",,,,123070060,,2024-05
anti-social-behaviour,Force,"{'latitude': '51.512059', 'street': {'id': 1679743, 'name': 'On or near A301'}, 'longitude': '-0.118929'}",,,,123070070,,2024-05
anti-social-behaviour,Force,"{'latitude': '51.495415', 'street': {'id': 1678026, 'name': 'On or near Monck Street'}, 'longitude': '-0.130794'}",,,,123070116,,2024-05
anti-social-behaviour,Force,"{'latitude': '51.502888', 'street': {'id': 1679979, 'name': 'On or near Chicheley Street'}, 'longitude': '-0.117319'}",,,,123070301,,2024-05
anti-social-behaviour,Force,"{'latitude': '51.495035', 'street': {'id': 1678842, 'name': 'On or near Ferry Terminal'}, 'longitude': '-0.121114'}",,,,123070903,,2024-05
anti-social-behaviour,Force,"{'latitude': '51.517742', 'street': {'id': 1678770, 'name': 'On or near Little Russell Street'}, 'longitude': '-0.125614'}",,,,123071147,,2024-05
anti-social-behaviour,Force,"{'latitude': '51.502428', 'street': {'id': 1681119, 'name': 'On or near Pear Place'}, 'longitude': '-0.110508'}",,,,123071200,,2024-05
anti-social-behaviour,Force,"{'latitude': '51.519883', 'street': {'id': 1676910, 'name': 'On or near Riding House Street'}, 'longitude': '-0.138138'}",,,,123073306,,2024-05
anti-social-behaviour,Force,"{'latitude': '51.504176', 'street': {'id': 1675117, 'name': 'On or near Hamilton Mews'}, 'longitude': '-0.149643'}",,,,123074363,,2024-05
anti-social-behaviour,Force,"{'latitude': '51.514704', 'street': {'id': 1678048, 'name': 'On or near Manette Street'}, 'longitude': '-0.130826'}",,,,123075209,,2024-05
anti-social-behaviour,Force,"{'latitude': '51.513970', 'street': {'id': 1677442, 'name': 'On or near Wardour Street'}, 'longitude': '-0.134387'}",,,,123075502,,2024-05
anti-social-behaviour,Force,"{'latitude': '51.513970', 'street': {'id': 1677442, 'name': 'On or near Wardour Street'}, 'longitude': '-0.134387'}",,,,123077212,,2024-05
anti-social-behaviour,Force,"{'latitude': '51.501941', 'street': {'id': 1680853, 'name': 'On or near Lower Road'}, 'longitude': '-0.112127'}",,,,123077536,,2024-05
anti-social-behaviour,Force,"{'latitude': '51.513575', 'street': {'id': 1676335, 'name': 'On or near Pollen Street'}, 'longitude': '-0.142373'}",,,,123077946,,2024-05
anti-social-behaviour,Force,"{'latitude': '51.514916', 'street': {'id': 1679680, 'name': 'On or near Keeley Street'}, 'longitude': '-0.119850'}",,,,123078697,,2024-05
anti-social-behaviour,Force,"{'latitude': '51.494110', 'street': {'id': 1678446, 'name': 'On or near Dean Ryle Street'}, 'longitude': '-0.126785'}",,,,123052985,,2024-05
anti-social-behaviour,Force,"{'latitude': '51.504066', 'street': {'id': 1681189, 'name': 'On or near Theatre/concert Hall'}, 'longitude': '-0.110037'}",,,,123054606,,2024-05
anti-social-behaviour,Force,"{'latitude': '51.500978', 'street': {'id': 1678704, 'name': 'On or near Bridge Street'}, 'longitude': '-0.125524'}",,,,123091232,,2024-05
anti-social-behaviour,Force,"{'latitude': '51.516037', 'street': {'id': 1678369, 'name': 'On or near Earnshaw Street'}, 'longitude': '-0.128682'}",,,,123104325,,2024-05
anti-social-behaviour,Force,"{'latitude': '51.499783', 'street': {'id': 1681546, 'name': 'On or near Cooper Close'}, 'longitude': '-0.108240'}",,,,123104387,,2024-05
anti-social-behaviour,Force,"{'latitude': '51.512059', 'street': {'id': 1679743, 'name': 'On or near A301'}, 'longitude': '-0.118929'}",,,,123104422,,2024-05
anti-social-behaviour,Force,"{'latitude': '51.495183', 'street': {'id': 1676610, 'name': 'On or near Morpeth Terrace'}, 'longitude': '-0.139952'}",,,,123104529,,2024-05
anti-social-behaviour,Force,"{'latitude': '51.492976', 'street': {'id': 1677806, 'name': 'On or near Vincent Street'}, 'longitude': '-0.131211'}",,,,123104587,,2024-05
anti-social-behaviour,Force,"{'latitude': '51.492976', 'street': {'id': 1677806, 'name': 'On or near Vincent Street'}, 'longitude': '-0.131211'}",,,,123104740,,2024-05
anti-social-behaviour,Force,"{'latitude': '51.496238', 'street': {'id': 1678531, 'name': 'On or near Smith Square'}, 'longitude': '-0.127130'}",,,,123104790,,2024-05
anti-social-behaviour,Force,"{'latitude': '51.506236', 'street': {'id': 1676347, 'name': 'On or near Parking Area'}, 'longitude': '-0.141322'}",,,,123104972,,2024-05
anti-social-behaviour,Force,"{'latitude': '51.514209', 'street': {'id': 1678096, 'name': 'On or near Phoenix Street'}, 'longitude': '-0.129665'}",,,,123098293,,2024-05
anti-social-behaviour,Force,"{'latitude': '51.497534', 'street': {'id': 1677829, 'name': 'On or near Old Pye Street'}, 'longitude': '-0.132307'}",,,,123098575,,2024-05
anti-social-behaviour,Force,"{'latitude': '51.497534', 'street': {'id': 1677829, 'name': 'On or near Old Pye Street'}, 'longitude': '-0.132307'}",,,,123098976,,2024-05
anti-social-behaviour,Force,"{'latitude': '51.519609', 'street': {'id': 1676738, 'name': 'On or near Foley Street'}, 'longitude': '-0.139548'}",,,,123099175,,2024-05
anti-social-behaviour,Force,"{'latitude': '51.515598', 'street': {'id': 1678536, 'name': 'On or near St Giles High Street'}, 'longitude': '-0.127633'}",,,,123099193,,2024-05
anti-social-behaviour,Force,"{'latitude': '51.508450', 'street': {'id': 1676091, 'name': 'On or near Nightclub'}, 'longitude': '-0.143266'}",,,,123099257,,2024-05
anti-social-behaviour,Force,"{'latitude': '51.507843', 'street': {'id': 1675601, 'name': 'On or near Charles Street'}, 'longitude': '-0.147232'}",,,,123099669,,2024-05
anti-social-behaviour,Force,"{'latitude': '51.514704', 'street': {'id': 1678048, 'name': 'On or near Manette Street'}, 'longitude': '-0.130826'}",,,,123099749,,2024-05
anti-social-behaviour,Force,"{'latitude': '51.516623', 'street': {'id': 1677604, 'name': 'On or near Nightclub'}, 'longitude': '-0.132976'}",,,,123100050,,2024-05
anti-social-behaviour,Force,"{'latitude': '51.503196', 'street': {'id': 1678183, 'name': 'On or near Downing Street'}, 'longitude': '-0.127032'}",,,,123100053,,2024-05
anti-social-behaviour,Force,"{'latitude': '51.513310', 'street': {'id': 1679459, 'name': 'On or near Theatre/concert Hall'}, 'longitude': '-0.120741'}",,,,123100709,,2024-05
anti-social-behaviour,Force,"{'latitude': '51.513575', 'street': {'id': 1676335, 'name': 'On or near Pollen Street'}, 'longitude': '-0.142373'}",,,,123101074,,2024-05
anti-social-behaviour,Force,"{'latitude': '51.521060', 'street': {'id': 1679230, 'name': 'On or near Cosmo Place'}, 'longitude': '-0.122797'}",,,,123101397,,2024-05
anti-social-behaviour,Force,"{'latitude': '51.514704', 'street': {'id': 1678048, 'name': 'On or near Manette Street'}, 'longitude': '-0.130826'}",,,,123101508,,2024-05
anti-social-behaviour,Force,"{'latitude': '51.513052', 'street': {'id': 1677758, 'name': 'On or near Bourchier Street'}, 'longitude': '-0.132681'}",,,,123101956,,2024-05
anti-social-behaviour,Force,"{'latitude': '51.513715', 'street': {'id': 1679596, 'name': 'On or near Drury Lane'}, 'longitude': '-0.120101'}",,,,123102228,,2024-05
anti-social-behaviour,Force,"{'latitude': '51.513575', 'street': {'id': 1676335, 'name': 'On or near Pollen Street'}, 'longitude': '-0.142373'}",,,,123102712,,2024-05
anti-social-behaviour,Force,"{'latitude': '51.519375', 'street': {'id': 1677066, 'name': 'On or near Goodge Place'}, 'longitude': '-0.136689'}",,,,123102727,,2024-05
anti-social-behaviour,Force,"{'latitude': '51.514536', 'street': {'id': 1676666, 'name': 'On or near Nightclub'}, 'longitude': '-0.140043'}",,,,123076025,,2024-05
anti-social-behaviour,Force,"{'latitude': '51.497497', 'street': {'id': 1677447, 'name': 'On or near Strutton Ground'}, 'longitude': '-0.133922'}",,,,123075996,,2024-05
anti-social-behaviour,Force,"{'latitude': '51.506600', 'street': {'id': 1677427, 'name': 'On or near Pall Mall'}, 'longitude': '-0.134054'}",,,,123075849,,2024-05
anti-social-behaviour,Force,"{'latitude': '51.498553', 'street': {'id': 1677378, 'name': 'On or near Caxton Street'}, 'longitude': '-0.135291'}",,,,123058410,,2024-05
anti-social-behaviour,Force,"{'latitude': '51.511783', 'street': {'id': 1678199, 'name': 'On or near Nightclub'}, 'longitude': '-0.129778'}",,,,123075767,,2024-05
anti-social-behaviour,Force,"{'latitude': '51.514010', 'street': {'id': 1678889, 'name': 'On or near Parking Area'}, 'longitude': '-0.124528'}",,,,123058285,,2024-05
anti-social-behaviour,Force,"{'latitude': '51.514211', 'street': {'id': 1678632, 'name': 'On or near Monmouth Street'}, 'longitude': '-0.126984'}",,,,123075636,,2024-05
anti-social-behaviour,Force,"{'latitude': '51.498185', 'street': {'id': 1678741, 'name': 'On or near Abingdon Street'}, 'longitude': '-0.125739'}",,,,123075629,,2024-05
anti-social-behaviour,Force,"{'latitude': '51.508964', 'street': {'id': 1679195, 'name': 'On or near Lower Robert Street'}, 'longitude': '-0.122761'}",,,,123058177,,2024-05
anti-social-behaviour,Force,"{'latitude': '51.519470', 'street': {'id': 1676720, 'name': 'On or near Candover Street'}, 'longitude': '-0.139842'}",,,,123075587,,2024-05
anti-social-behaviour,Force,"{'latitude': '51.511574', 'street': {'id': 1678643, 'name': 'On or near Garrick Street'}, 'longitude': '-0.126271'}",,,,123075403,,2024-05
anti-social-behaviour,Force,"{'latitude': '51.507097', 'street': {'id': 1677926, 'name': 'On or near Parking Area'}, 'longitude': '-0.130864'}",,,,123075378,,2024-05
anti-social-behaviour,Force,"{'latitude': '51.517287', 'street': {'id': 1678024, 'name': 'On or near Parking Area'}, 'longitude': '-0.130403'}",,,,123076311,,2024-05
anti-social-behaviour,Force,"{'latitude': '51.509396', 'street': {'id': 1678091, 'name': 'On or near Orange Street'}, 'longitude': '-0.130626'}",,,,123103003,,2024-05
anti-social-behaviour,Force,"{'latitude': '51.506342', 'street': {'id': 1678767, 'name': 'On or near Great Scotland Yard'}, 'longitude': '-0.125794'}",,,,123075310,,2024-05
anti-social-behaviour,Force,"{'latitude': '51.518897', 'street': {'id': 1680092, 'name': 'On or near Red Lion Street'}, 'longitude': '-0.116904'}",,,,123075177,,2024-05
anti-social-behaviour,Force,"{'latitude': '51.510042', 'street': {'id': 1679444, 'name': 'On or near Savoy Way'}, 'longitude': '-0.120439'}",,,,123074885,,2024-05
anti-social-behaviour,Force,"{'latitude': '51.500978', 'street': {'id': 1678704, 'name': 'On or near Bridge Street'}, 'longitude': '-0.125524'}",,,,123074759,,2024-05
anti-social-behaviour,Force,"{'latitude': '51.519933', 'street': {'id': 1677494, 'name': 'On or near Shopping Area'}, 'longitude': '-0.133899'}",,,,123074757,,2024-05
anti-social-behaviour,Force,"{'latitude': '51.511925', 'street': {'id': 1677105, 'name': 'On or near Bridle Lane'}, 'longitude': '-0.136431'}",,,,123074559,,2024-05
anti-social-behaviour,Force,"{'latitude': '51.515088', 'street': {'id': 1676649, 'name': 'On or near Hills Place'}, 'longitude': '-0.140222'}",,,,123074295,,2024-05
anti-social-behaviour,Force,"{'latitude': '51.512802', 'street': {'id': 1679061, 'name': 'On or near James Street'}, 'longitude': '-0.123770'}",,,,123074187,,2024-05
anti-social-behaviour,Force,"{'latitude': '51.518456', 'street': {'id': 1677599, 'name': 'On or near Percy Street'}, 'longitude': '-0.133209'}",,,,123074155,,2024-05
anti-social-behaviour,Force,"{'latitude': '51.504507', 'street': {'id': 1681118, 'name': 'On or near Cornwall Road'}, 'longitude': '-0.110609'}",,,,123074141,,2024-05
anti-social-behaviour,Force,"{'latitude': '51.507970', 'street': {'id': 1677656, 'name': 'On or near Charles Ii Street'}, 'longitude': '-0.133162'}",,,,123074053,,2024-05
anti-social-behaviour,Force,"{'latitude': '51.511623', 'street': {'id': 1678738, 'name': 'On or near Rose Street'}, 'longitude': '-0.125951'}",,,,123073926,,2024-05
anti-social-behaviour,Force,"{'latitude': '51.517319', 'street': {'id': 1678533, 'name': 'On or near Streatham Street'}, 'longitude': '-0.127274'}",,,,123073922,,2024-05
anti-social-behaviour,Force,"{'latitude': '51.495936', 'street': {'id': 1676456, 'name': 'On or near Carlisle Place'}, 'longitude': '-0.141491'}",,,,123073890,,2024-05
anti-social-behaviour,Force,"{'latitude': '51.516785', 'street': {'id': 1678562, 'name': 'On or near Theatre/concert Hall'}, 'longitude': '-0.126532'}",,,,123073752,,2024-05
anti-social-behaviour,Force,"{'latitude': '51.508450', 'street': {'id': 1676091, 'name': 'On or near Nightclub'}, 'longitude': '-0.143266'}",,,,123073048,,2024-05
anti-social-behaviour,Force,"{'latitude': '51.494818', 'street': {'id': 1679973, 'name': 'On or near Pratt Walk'}, 'longitude': '-0.117089'}",,,,123072961,,2024-05
anti-social-behaviour,Force,"{'latitude': '51.507725', 'street': {'id': 1678750, 'name': 'On or near Corner House Street'}, 'longitude': '-0.125708'}",,,,123085493,,2024-05
anti-social-behaviour,Force,"{'latitude': '51.503196', 'street': {'id': 1678183, 'name': 'On or near Downing Street'}, 'longitude': '-0.127032'}",,,,123085375,,2024-05
anti-social-behaviour,Force,"{'latitude': '51.514286', 'street': {'id': 1677663, 'name': 'On or near Chapone Place'}, 'longitude': '-0.132818'}",,,,123085084,,2024-05
anti-social-behaviour,Force,"{'latitude': '51.499488', 'street': {'id': 1679222, 'name': 'On or near Hospital'}, 'longitude': '-0.118410'}",,,,123085054,,2024-05
anti-social-behaviour,Force,"{'latitude': '51.507938', 'street': {'id': 1678191, 'name': 'On or near Trafalgar Square'}, 'longitude': '-0.128898'}",,,,123084862,,2024-05
anti-social-behaviour,Force,"{'latitude': '51.514195', 'street': {'id': 1675879, 'name': 'On or near Dering Street'}, 'longitude': '-0.145735'}",,,,123084695,,2024-05
anti-social-behaviour,Force,"{'latitude': '51.512300', 'street': {'id': 1678389, 'name': 'On or near Theatre/concert Hall'}, 'longitude': '-0.128388'}",,,,123084629,,2024-05
anti-social-behaviour,Force,"{'latitude': '51.517287', 'street': {'id': 1678024, 'name': 'On or near Parking Area'}, 'longitude': '-0.130403'}",,,,123083455,,2024-05
anti-social-behaviour,Force,"{'latitude': '51.512300', 'street': {'id': 1678389, 'name': 'On or near Theatre/concert Hall'}, 'longitude': '-0.128388'}",,,,123083350,,2024-05
anti-social-behaviour,Force,"{'latitude': '51.515088', 'street': {'id': 1676649, 'name': 'On or near Hills Place'}, 'longitude': '-0.140222'}",,,,123083206,,2024-05
anti-social-behaviour,Force,"{'latitude': '51.503496', 'street': {'id': 1681772, 'name': 'On or near Hatfields'}, 'longitude': '-0.106473'}",,,,123083185,,2024-05
anti-social-behaviour,Force,"{'latitude': '51.510152', 'street': {'id': 1677738, 'name': 'On or near Theatre/concert Hall'}, 'longitude': '-0.132382'}",,,,123083018,,2024-05
anti-social-behaviour,Force,"{'latitude': '51.508313', 'street': {'id': 1677242, 'name': 'On or near Apple Tree Yard'}, 'longitude': '-0.136074'}",,,,123082440,,2024-05
anti-social-behaviour,Force,"{'latitude': '51.514286', 'street': {'id': 1677663, 'name': 'On or near Chapone Place'}, 'longitude': '-0.132818'}",,,,123082388,,2024-05
anti-social-behaviour,Force,"{'latitude': '51.509496', 'street': {'id': 1675494, 'name': 'On or near Farm Street'}, 'longitude': '-0.148318'}",,,,123082107,,2024-05
anti-social-behaviour,Force,"{'latitude': '51.514704', 'street': {'id': 1678048, 'name': 'On or near Manette Street'}, 'longitude': '-0.130826'}",,,,123082004,,2024-05
anti-social-behaviour,Force,"{'latitude': '51.512499', 'street': {'id': 1679706, 'name': 'On or near Theatre/concert Hall'}, 'longitude': '-0.119459'}",,,,123081550,,2024-05
anti-social-behaviour,Force,"{'latitude': '51.512166', 'street': {'id': 1678947, 'name': 'On or near Shopping Area'}, 'longitude': '-0.123818'}",,,,123081048,,2024-05
anti-social-behaviour,Force,"{'latitude': '51.514971', 'street': {'id': 1677609, 'name': 'On or near Carlisle Street'}, 'longitude': '-0.133438'}",,,,123080705,,2024-05
anti-social-behaviour,Force,"{'latitude': '51.513150', 'street': {'id': 1676870, 'name': 'On or near Carnaby Street'}, 'longitude': '-0.138845'}",,,,123080434,,2024-05
anti-social-behaviour,Force,"{'latitude': '51.511783', 'street': {'id': 1678199, 'name': 'On or near Nightclub'}, 'longitude': '-0.129778'}",,,,123080268,,2024-05
anti-social-behaviour,Force,"{'latitude': '51.499488', 'street': {'id': 1679222, 'name': 'On or near Hospital'}, 'longitude': '-0.118410'}",,,,123079966,,2024-05
anti-social-behaviour,Force,"{'latitude': '51.511583', 'street': {'id': 1677675, 'name': 'On or near Theatre/concert Hall'}, 'longitude': '-0.133287'}",,,,123079623,,2024-05
anti-social-behaviour,Force,"{'latitude': '51.515753', 'street': {'id': 1676083, 'name': ""On or near John Prince's Street""}, 'longitude': '-0.143092'}",,,,123103727,,2024-05
anti-social-behaviour,Force,"{'latitude': '51.509491', 'street': {'id': 1678539, 'name': 'On or near William Iv Street'}, 'longitude': '-0.125924'}",,,,123103592,,2024-05
anti-social-behaviour,Force,"{'latitude': '51.516295', 'street': {'id': 1678131, 'name': 'On or near Conference/exhibition Centre'}, 'longitude': '-0.129487'}",,,,123103082,,2024-05
anti-social-behaviour,Force,"{'latitude': '51.514195', 'street': {'id': 1675879, 'name': 'On or near Dering Street'}, 'longitude': '-0.145735'}",,,,123058148,,2024-05
anti-social-behaviour,Force,"{'latitude': '51.518739', 'street': {'id': 1677897, 'name': 'On or near Bayley Street'}, 'longitude': '-0.131785'}",,,,123058031,,2024-05
anti-social-behaviour,Force,"{'latitude': '51.512416', 'street': {'id': 1677661, 'name': 'On or near Nightclub'}, 'longitude': '-0.133384'}",,,,123058001,,2024-05
anti-social-behaviour,Force,"{'latitude': '51.509044', 'street': {'id': 1679072, 'name': 'On or near John Adam Street'}, 'longitude': '-0.123247'}",,,,123072984,,2024-05
anti-social-behaviour,Force,"{'latitude': '51.514684', 'street': {'id': 1676465, 'name': 'On or near Argyll Street'}, 'longitude': '-0.140844'}",,,,123064106,,2024-05
anti-social-behaviour,Force,"{'latitude': '51.517741', 'street': {'id': 1676209, 'name': 'On or near Langham Place'}, 'longitude': '-0.143126'}",,,,123057934,,2024-05
anti-social-behaviour,Force,"{'latitude': '51.498908', 'street': {'id': 1677674, 'name': 'On or near Dacre Street'}, 'longitude': '-0.132712'}",,,,118889791,,2024-05
anti-social-behaviour,Force,"{'latitude': '51.495936', 'street': {'id': 1676456, 'name': 'On or near Carlisle Place'}, 'longitude': '-0.141491'}",,,,123071905,,2024-05
anti-social-behaviour,Force,"{'latitude': '51.516351', 'street': {'id': 1679201, 'name': 'On or near Stukeley Street'}, 'longitude': '-0.122976'}",,,,123071630,,2024-05
anti-social-behaviour,Force,"{'latitude': '51.499488', 'street': {'id': 1679222, 'name': 'On or near Hospital'}, 'longitude': '-0.118410'}",,,,123071594,,2024-05
anti-social-behaviour,Force,"{'latitude': '51.504309', 'street': {'id': 1681420, 'name': 'On or near Brad Street'}, 'longitude': '-0.108960'}",,,,123071590,,2024-05
anti-social-behaviour,Force,"{'latitude': '51.507725', 'street': {'id': 1678750, 'name': 'On or near Corner House Street'}, 'longitude': '-0.125708'}",,,,123070947,,2024-05
anti-social-behaviour,Force,"{'latitude': '51.507576', 'street': {'id': 1676403, 'name': 'On or near Nightclub'}, 'longitude': '-0.141776'}",,,,123070134,,2024-05
anti-social-behaviour,Force,"{'latitude': '51.506632', 'street': {'id': 1678507, 'name': 'On or near Theatre/concert Hall'}, 'longitude': '-0.127640'}",,,,123069756,,2024-05
anti-social-behaviour,Force,"{'latitude': '51.503496', 'street': {'id': 1681772, 'name': 'On or near Hatfields'}, 'longitude': '-0.106473'}",,,,123068961,,2024-05
anti-social-behaviour,Force,"{'latitude': '51.503196', 'street': {'id': 1678183, 'name': 'On or near Downing Street'}, 'longitude': '-0.127032'}",,,,123068789,,2024-05
anti-social-behaviour,Force,"{'latitude': '51.496508', 'street': {'id': 1676664, 'name': 'On or near Ambrosden Avenue'}, 'longitude': '-0.139610'}",,,,123068787,,2024-05
anti-social-behaviour,Force,"{'latitude': '51.500608', 'street': {'id': 1681635, 'name': 'On or near Gray Street'}, 'longitude': '-0.108091'}",,,,123068780,,2024-05
anti-social-behaviour,Force,"{'latitude': '51.507766', 'street': {'id': 1676493, 'name': 'On or near Nightclub'}, 'longitude': '-0.141284'}",,,,123068628,,2024-05
anti-social-behaviour,Force,"{'latitude': '51.509458', 'street': {'id': 1677786, 'name': 'On or near Nightclub'}, 'longitude': '-0.132280'}",,,,123068303,,2024-05
anti-social-behaviour,Force,"{'latitude': '51.508964', 'street': {'id': 1679195, 'name': 'On or near Lower Robert Street'}, 'longitude': '-0.122761'}",,,,123067165,,2024-05
anti-social-behaviour,Force,"{'latitude': '51.506673', 'street': {'id': 1681427, 'name': 'On or near Duchy Street'}, 'longitude': '-0.108877'}",,,,123067048,,2024-05
anti-social-behaviour,Force,"{'latitude': '51.500253', 'street': {'id': 1678686, 'name': 'On or near St Margaret Street'}, 'longitude': '-0.126317'}",,,,123066992,,2024-05
anti-social-behaviour,Force,"{'latitude': '51.495745', 'street': {'id': 1677734, 'name': 'On or near Parking Area'}, 'longitude': '-0.132308'}",,,,123066702,,2024-05
anti-social-behaviour,Force,"{'latitude': '51.517741', 'street': {'id': 1676209, 'name': 'On or near Langham Place'}, 'longitude': '-0.143126'}",,,,123066373,,2024-05
anti-social-behaviour,Force,"{'latitude': '51.511623', 'street': {'id': 1678738, 'name': 'On or near Rose Street'}, 'longitude': '-0.125951'}",,,,123066321,,2024-05
anti-social-behaviour,Force,"{'latitude': '51.518456', 'street': {'id': 1677599, 'name': 'On or near Percy Street'}, 'longitude': '-0.133209'}",,,,123066209,,2024-05
anti-social-behaviour,Force,"{'latitude': '51.503196', 'street': {'id': 1678183, 'name': 'On or near Downing Street'}, 'longitude': '-0.127032'}",,,,123066146,,2024-05
anti-social-behaviour,Force,"{'latitude': '51.511312', 'street': {'id': 1677127, 'name': 'On or near Lower James Street'}, 'longitude': '-0.136326'}",,,,123066105,,2024-05
anti-social-behaviour,Force,"{'latitude': '51.519933', 'street': {'id': 1677494, 'name': 'On or near Shopping Area'}, 'longitude': '-0.133899'}",,,,123066046,,2024-05
anti-social-behaviour,Force,"{'latitude': '51.518456', 'street': {'id': 1677599, 'name': 'On or near Percy Street'}, 'longitude': '-0.133209'}",,,,123066042,,2024-05
anti-social-behaviour,Force,"{'latitude': '51.519639', 'street': {'id': 1679160, 'name': 'On or near Bloomsbury Place'}, 'longitude': '-0.122797'}",,,,123066020,,2024-05
anti-social-behaviour,Force,"{'latitude': '51.509158', 'street': {'id': 1677370, 'name': 'On or near Theatre/concert Hall'}, 'longitude': '-0.134930'}",,,,123065899,,2024-05
anti-social-behaviour,Force,"{'latitude': '51.518687', 'street': {'id': 1679965, 'name': 'On or near Eagle Street'}, 'longitude': '-0.117820'}",,,,123065761,,2024-05
anti-social-behaviour,Force,"{'latitude': '51.515598', 'street': {'id': 1678536, 'name': 'On or near St Giles High Street'}, 'longitude': '-0.127633'}",,,,123065707,,2024-05
anti-social-behaviour,Force,"{'latitude': '51.504066', 'street': {'id': 1681189, 'name': 'On or near Theatre/concert Hall'}, 'longitude': '-0.110037'}",,,,123065449,,2024-05
anti-social-behaviour,Force,"{'latitude': '51.497497', 'street': {'id': 1677447, 'name': 'On or near Strutton Ground'}, 'longitude': '-0.133922'}",,,,123065390,,2024-05
anti-social-behaviour,Force,"{'latitude': '51.510345', 'street': {'id': 1679211, 'name': 'On or near Theatre/concert Hall'}, 'longitude': '-0.122502'}",,,,123065265,,2024-05
anti-social-behaviour,Force,"{'latitude': '51.511022', 'street': {'id': 1679585, 'name': 'On or near Strand'}, 'longitude': '-0.119880'}",,,,123067805,,2024-05
anti-social-behaviour,Force,"{'latitude': '51.514582', 'street': {'id': 1678863, 'name': 'On or near Shorts Gardens'}, 'longitude': '-0.125441'}",,,,123067809,,2024-05
anti-social-behaviour,Force,"{'latitude': '51.508990', 'street': {'id': 1676361, 'name': 'On or near Albemarle Street'}, 'longitude': '-0.141882'}",,,,123097500,,2024-05
anti-social-behaviour,Force,"{'latitude': '51.514867', 'street': {'id': 1676714, 'name': 'On or near Further/higher Educational Building'}, 'longitude': '-0.138790'}",,,,123097494,,2024-05
anti-social-behaviour,Force,"{'latitude': '51.514916', 'street': {'id': 1679680, 'name': 'On or near Keeley Street'}, 'longitude': '-0.119850'}",,,,123097428,,2024-05
anti-social-behaviour,Force,"{'latitude': '51.505921', 'street': {'id': 1681295, 'name': 'On or near Aquinas Street'}, 'longitude': '-0.109067'}",,,,123097363,,2024-05
anti-social-behaviour,Force,"{'latitude': '51.503196', 'street': {'id': 1678183, 'name': 'On or near Downing Street'}, 'longitude': '-0.127032'}",,,,123097105,,2024-05
anti-social-behaviour,Force,"{'latitude': '51.510272', 'street': {'id': 1678129, 'name': 'On or near Nightclub'}, 'longitude': '-0.129192'}",,,,123096629,,2024-05
anti-social-behaviour,Force,"{'latitude': '51.515598', 'street': {'id': 1678536, 'name': 'On or near St Giles High Street'}, 'longitude': '-0.127633'}",,,,123098648,,2024-05
anti-social-behaviour,Force,"{'latitude': '51.507115', 'street': {'id': 1676040, 'name': 'On or near Bolton Street'}, 'longitude': '-0.144408'}",,,,123100661,,2024-05
anti-social-behaviour,Force,"{'latitude': '51.513848', 'street': {'id': 1678270, 'name': 'On or near Old Compton Street'}, 'longitude': '-0.129593'}",,,,123063977,,2024-05
anti-social-behaviour,Force,"{'latitude': '51.520725', 'street': {'id': 1679276, 'name': 'On or near Shopping Area'}, 'longitude': '-0.122090'}",,,,123096604,,2024-05
anti-social-behaviour,Force,"{'latitude': '51.495286', 'street': {'id': 1677480, 'name': 'On or near Greycoat Street'}, 'longitude': '-0.134574'}",,,,123096547,,2024-05
anti-social-behaviour,Force,"{'latitude': '51.512059', 'street': {'id': 1679743, 'name': 'On or near A301'}, 'longitude': '-0.118929'}",,,,123096348,,2024-05
anti-social-behaviour,Force,"{'latitude': '51.516295', 'street': {'id': 1678131, 'name': 'On or near Conference/exhibition Centre'}, 'longitude': '-0.129487'}",,,,123096308,,2024-05
anti-social-behaviour,Force,"{'latitude': '51.510729', 'street': {'id': 1677342, 'name': 'On or near Denman Street'}, 'longitude': '-0.135283'}",,,,123096077,,2024-05
anti-social-behaviour,Force,"{'latitude': '51.498553', 'street': {'id': 1677378, 'name': 'On or near Caxton Street'}, 'longitude': '-0.135291'}",,,,123067306,,2024-05
anti-social-behaviour,Force,"{'latitude': '51.515598', 'street': {'id': 1678536, 'name': 'On or near St Giles High Street'}, 'longitude': '-0.127633'}",,,,123095859,,2024-05
anti-social-behaviour,Force,"{'latitude': '51.519792', 'street': {'id': 1679812, 'name': 'On or near Theatre/concert Hall'}, 'longitude': '-0.118337'}",,,,123067286,,2024-05
anti-social-behaviour,Force,"{'latitude': '51.516820', 'street': {'id': 1678501, 'name': 'On or near Dyott Street'}, 'longitude': '-0.127583'}",,,,123095508,,2024-05
anti-social-behaviour,Force,"{'latitude': '51.510942', 'street': {'id': 1677925, 'name': 'On or near Leicester Street'}, 'longitude': '-0.131196'}",,,,123095055,,2024-05
anti-social-behaviour,Force,"{'latitude': '51.514211', 'street': {'id': 1678632, 'name': 'On or near Monmouth Street'}, 'longitude': '-0.126984'}",,,,123094932,,2024-05
anti-social-behaviour,Force,"{'latitude': '51.512449', 'street': {'id': 1680063, 'name': 'On or near Surrey Street'}, 'longitude': '-0.115772'}",,,,123094914,,2024-05
anti-social-behaviour,Force,"{'latitude': '51.515004', 'street': {'id': 1678816, 'name': 'On or near B401'}, 'longitude': '-0.125352'}",,,,123094789,,2024-05
anti-social-behaviour,Force,"{'latitude': '51.513970', 'street': {'id': 1677442, 'name': 'On or near Wardour Street'}, 'longitude': '-0.134387'}",,,,123094144,,2024-05
anti-social-behaviour,Force,"{'latitude': '51.515598', 'street': {'id': 1678536, 'name': 'On or near St Giles High Street'}, 'longitude': '-0.127633'}",,,,123094085,,2024-05
anti-social-behaviour,Force,"{'latitude': '51.494818', 'street': {'id': 1679973, 'name': 'On or near Pratt Walk'}, 'longitude': '-0.117089'}",,,,123093895,,2024-05
anti-social-behaviour,Force,"{'latitude': '51.511534', 'street': {'id': 1678076, 'name': 'On or near Lisle Street'}, 'longitude': '-0.130495'}",,,,123097973,,2024-05
anti-social-behaviour,Force,"{'latitude': '51.496440', 'street': {'id': 1677223, 'name': 'On or near Spencer Place'}, 'longitude': '-0.135867'}",,,,123093381,,2024-05
anti-social-behaviour,Force,"{'latitude': '51.514916', 'street': {'id': 1679680, 'name': 'On or near Keeley Street'}, 'longitude': '-0.119850'}",,,,123093245,,2024-05
anti-social-behaviour,Force,"{'latitude': '51.495936', 'street': {'id': 1676456, 'name': 'On or near Carlisle Place'}, 'longitude': '-0.141491'}",,,,123092928,,2024-05
anti-social-behaviour,Force,"{'latitude': '51.510708', 'street': {'id': 1678740, 'name': 'On or near Hop Gardens'}, 'longitude': '-0.126104'}",,,,123067174,,2024-05
anti-social-behaviour,Force,"{'latitude': '51.516001', 'street': {'id': 1679229, 'name': 'On or near Macklin Street'}, 'longitude': '-0.122471'}",,,,123067146,,2024-05
anti-social-behaviour,Force,"{'latitude': '51.509786', 'street': {'id': 1678937, 'name': 'On or near Police Station'}, 'longitude': '-0.124658'}",,,,123092919,,2024-05
anti-social-behaviour,Force,"{'latitude': '51.498185', 'street': {'id': 1678741, 'name': 'On or near Abingdon Street'}, 'longitude': '-0.125739'}",,,,123066913,,2024-05
anti-social-behaviour,Force,"{'latitude': '51.514472', 'street': {'id': 1679110, 'name': 'On or near Arne Street'}, 'longitude': '-0.123053'}",,,,123057930,,2024-05
anti-social-behaviour,Force,"{'latitude': '51.494818', 'street': {'id': 1679973, 'name': 'On or near Pratt Walk'}, 'longitude': '-0.117089'}",,,,123066925,,2024-05
anti-social-behaviour,Force,"{'latitude': '51.502888', 'street': {'id': 1679979, 'name': 'On or near Chicheley Street'}, 'longitude': '-0.117319'}",,,,123057909,,2024-05
anti-social-behaviour,Force,"{'latitude': '51.516275', 'street': {'id': 1678661, 'name': 'On or near Theatre/concert Hall'}, 'longitude': '-0.126121'}",,,,123057895,,2024-05
anti-social-behaviour,Force,"{'latitude': '51.508450', 'street': {'id': 1676091, 'name': 'On or near Nightclub'}, 'longitude': '-0.143266'}",,,,123057766,,2024-05
anti-social-behaviour,Force,"{'latitude': '51.513512', 'street': {'id': 1678639, 'name': 'On or near Theatre/concert Hall'}, 'longitude': '-0.126401'}",,,,123066893,,2024-05
anti-social-behaviour,Force,"{'latitude': '51.505921', 'street': {'id': 1681295, 'name': 'On or near Aquinas Street'}, 'longitude': '-0.109067'}",,,,123066534,,2024-05
anti-social-behaviour,Force,"{'latitude': '51.514600', 'street': {'id': 1679615, 'name': 'On or near Keeley Street'}, 'longitude': '-0.120338'}",,,,123064433,,2024-05
anti-social-behaviour,Force,"{'latitude': '51.501941', 'street': {'id': 1680853, 'name': 'On or near Lower Road'}, 'longitude': '-0.112127'}",,,,123092887,,2024-05
anti-social-behaviour,Force,"{'latitude': '51.504066', 'street': {'id': 1681189, 'name': 'On or near Theatre/concert Hall'}, 'longitude': '-0.110037'}",,,,123063927,,2024-05
anti-social-behaviour,Force,"{'latitude': '51.501941', 'street': {'id': 1680853, 'name': 'On or near Lower Road'}, 'longitude': '-0.112127'}",,,,123068376,,2024-05
anti-social-behaviour,Force,"{'latitude': '51.494818', 'street': {'id': 1679973, 'name': 'On or near Pratt Walk'}, 'longitude': '-0.117089'}",,,,123067998,,2024-05
anti-social-behaviour,Force,"{'latitude': '51.495415', 'street': {'id': 1678026, 'name': 'On or near Monck Street'}, 'longitude': '-0.130794'}",,,,123093291,,2024-05
anti-social-behaviour,Force,"{'latitude': '51.496569', 'street': {'id': 1678310, 'name': 'On or near Conference/exhibition Centre'}, 'longitude': '-0.128759'}",,,,123092882,,2024-05
anti-social-behaviour,Force,"{'latitude': '51.499488', 'street': {'id': 1679222, 'name': 'On or near Hospital'}, 'longitude': '-0.118410'}",,,,123084859,,2024-05
anti-social-behaviour,Force,"{'latitude': '51.510513', 'street': {'id': 1678829, 'name': 'On or near Bedford Court'}, 'longitude': '-0.125161'}",,,,123092603,,2024-05
anti-social-behaviour,Force,"{'latitude': '51.506632', 'street': {'id': 1678507, 'name': 'On or near Theatre/concert Hall'}, 'longitude': '-0.127640'}",,,,123092567,,2024-05
anti-social-behaviour,Force,"{'latitude': '51.516341', 'street': {'id': 1679597, 'name': 'On or near Nightclub'}, 'longitude': '-0.120151'}",,,,123067775,,2024-05
anti-social-behaviour,Force,"{'latitude': '51.514195', 'street': {'id': 1675879, 'name': 'On or near Dering Street'}, 'longitude': '-0.145735'}",,,,123057739,,2024-05
anti-social-behaviour,Force,"{'latitude': '51.515598', 'street': {'id': 1678536, 'name': 'On or near St Giles High Street'}, 'longitude': '-0.127633'}",,,,123057724,,2024-05
anti-social-behaviour,Force,"{'latitude': '51.512780', 'street': {'id': 1677484, 'name': 'On or near Peter Street'}, 'longitude': '-0.134234'}",,,,123057428,,2024-05
anti-social-behaviour,Force,"{'latitude': '51.512419', 'street': {'id': 1677021, 'name': 'On or near Upper James Street'}, 'longitude': '-0.137520'}",,,,123057426,,2024-05
anti-social-behaviour,Force,"{'latitude': '51.511574', 'street': {'id': 1678643, 'name': 'On or near Garrick Street'}, 'longitude': '-0.126271'}",,,,123057356,,2024-05
anti-social-behaviour,Force,"{'latitude': '51.514684', 'street': {'id': 1676465, 'name': 'On or near Argyll Street'}, 'longitude': '-0.140844'}",,,,123057350,,2024-05
anti-social-behaviour,Force,"{'latitude': '51.517782', 'street': {'id': 1676909, 'name': 'On or near Further/higher Educational Building'}, 'longitude': '-0.138296'}",,,,123057348,,2024-05
anti-social-behaviour,Force,"{'latitude': '51.500978', 'street': {'id': 1678704, 'name': 'On or near Bridge Street'}, 'longitude': '-0.125524'}",,,,123057154,,2024-05
anti-social-behaviour,Force,"{'latitude': '51.497269', 'street': {'id': 1680296, 'name': 'On or near Hercules Road'}, 'longitude': '-0.114064'}",,,,123057123,,2024-05
anti-social-behaviour,Force,"{'latitude': '51.512764', 'street': {'id': 1677421, 'name': 'On or near Further/higher Educational Building'}, 'longitude': '-0.134892'}",,,,123057119,,2024-05
anti-social-behaviour,Force,"{'latitude': '51.500978', 'street': {'id': 1678704, 'name': 'On or near Bridge Street'}, 'longitude': '-0.125524'}",,,,123057007,,2024-05
anti-social-behaviour,Force,"{'latitude': '51.507832', 'street': {'id': 1679120, 'name': 'On or near Villiers Street'}, 'longitude': '-0.123383'}",,,,123056906,,2024-05
anti-social-behaviour,Force,"{'latitude': '51.514012', 'street': {'id': 1677997, 'name': 'On or near Nightclub'}, 'longitude': '-0.131078'}",,,,123056680,,2024-05
anti-social-behaviour,Force,"{'latitude': '51.512764', 'street': {'id': 1677421, 'name': 'On or near Further/higher Educational Building'}, 'longitude': '-0.134892'}",,,,123056666,,2024-05
anti-social-behaviour,Force,"{'latitude': '51.513310', 'street': {'id': 1679459, 'name': 'On or near Theatre/concert Hall'}, 'longitude': '-0.120741'}",,,,123056587,,2024-05
anti-social-behaviour,Force,"{'latitude': '51.516001', 'street': {'id': 1679229, 'name': 'On or near Macklin Street'}, 'longitude': '-0.122471'}",,,,123056537,,2024-05
anti-social-behaviour,Force,"{'latitude': '51.517803', 'street': {'id': 1677586, 'name': 'On or near Percy Mews'}, 'longitude': '-0.133971'}",,,,123056293,,2024-05
anti-social-behaviour,Force,"{'latitude': '51.499692', 'street': {'id': 1680405, 'name': 'On or near Westminster Bridge Road'}, 'longitude': '-0.114266'}",,,,123056285,,2024-05
anti-social-behaviour,Force,"{'latitude': '51.505921', 'street': {'id': 1681295, 'name': 'On or near Aquinas Street'}, 'longitude': '-0.109067'}",,,,123056264,,2024-05
anti-social-behaviour,Force,"{'latitude': '51.499558', 'street': {'id': 1677236, 'name': 'On or near Petty France'}, 'longitude': '-0.135739'}",,,,123056122,,2024-05
anti-social-behaviour,Force,"{'latitude': '51.495936', 'street': {'id': 1676456, 'name': 'On or near Carlisle Place'}, 'longitude': '-0.141491'}",,,,123056101,,2024-05
anti-social-behaviour,Force,"{'latitude': '51.509458', 'street': {'id': 1677786, 'name': 'On or near Nightclub'}, 'longitude': '-0.132280'}",,,,123056053,,2024-05
anti-social-behaviour,Force,"{'latitude': '51.520725', 'street': {'id': 1679276, 'name': 'On or near Shopping Area'}, 'longitude': '-0.122090'}",,,,123055938,,2024-05
anti-social-behaviour,Force,"{'latitude': '51.505035', 'street': {'id': 1680614, 'name': 'On or near Further/higher Educational Building'}, 'longitude': '-0.112677'}",,,,123055870,,2024-05
anti-social-behaviour,Force,"{'latitude': '51.513019', 'street': {'id': 1678021, 'name': 'On or near Romilly Street'}, 'longitude': '-0.130592'}",,,,123055768,,2024-05
anti-social-behaviour,Force,"{'latitude': '51.515088', 'street': {'id': 1676649, 'name': 'On or near Hills Place'}, 'longitude': '-0.140222'}",,,,123092478,,2024-05
anti-social-behaviour,Force,"{'latitude': '51.505035', 'street': {'id': 1680614, 'name': 'On or near Further/higher Educational Building'}, 'longitude': '-0.112677'}",,,,123088282,,2024-05
anti-social-behaviour,Force,"{'latitude': '51.520963', 'street': {'id': 1677791, 'name': 'On or near Chenies Street'}, 'longitude': '-0.132530'}",,,,123092371,,2024-05
anti-social-behaviour,Force,"{'latitude': '51.516001', 'street': {'id': 1679229, 'name': 'On or near Macklin Street'}, 'longitude': '-0.122471'}",,,,123091888,,2024-05
anti-social-behaviour,Force,"{'latitude': '51.514211', 'street': {'id': 1678632, 'name': 'On or near Monmouth Street'}, 'longitude': '-0.126984'}",,,,123091593,,2024-05
anti-social-behaviour,Force,"{'latitude': '51.519092', 'street': {'id': 1679240, 'name': 'On or near Bloomsbury Square'}, 'longitude': '-0.122330'}",,,,123088180,,2024-05
anti-social-behaviour,Force,"{'latitude': '51.504176', 'street': {'id': 1675117, 'name': 'On or near Hamilton Mews'}, 'longitude': '-0.149643'}",,,,123091309,,2024-05
anti-social-behaviour,Force,"{'latitude': '51.510468', 'street': {'id': 1678029, 'name': 'On or near Leicester Square'}, 'longitude': '-0.130769'}",,,,123072119,,2024-05
anti-social-behaviour,Force,"{'latitude': '51.506985', 'street': {'id': 1678839, 'name': 'On or near Northumberland Avenue'}, 'longitude': '-0.124975'}",,,,123091250,,2024-05
anti-social-behaviour,Force,"{'latitude': '51.511997', 'street': {'id': 1677958, 'name': 'On or near Macclesfield Street'}, 'longitude': '-0.131355'}",,,,123087484,,2024-05
anti-social-behaviour,Force,"{'latitude': '51.514536', 'street': {'id': 1676666, 'name': 'On or near Nightclub'}, 'longitude': '-0.140043'}",,,,123087054,,2024-05
anti-social-behaviour,Force,"{'latitude': '51.510393', 'street': {'id': 1679128, 'name': 'On or near Theatre/concert Hall'}, 'longitude': '-0.123264'}",,,,123058396,,2024-05
anti-social-behaviour,Force,"{'latitude': '51.500978', 'street': {'id': 1678704, 'name': 'On or near Bridge Street'}, 'longitude': '-0.125524'}",,,,123091041,,2024-05
anti-social-behaviour,Force,"{'latitude': '51.516341', 'street': {'id': 1679597, 'name': 'On or near Nightclub'}, 'longitude': '-0.120151'}",,,,123055757,,2024-05
anti-social-behaviour,Force,"{'latitude': '51.514211', 'street': {'id': 1678632, 'name': 'On or near Monmouth Street'}, 'longitude': '-0.126984'}",,,,123055717,,2024-05
anti-social-behaviour,Force,"{'latitude': '51.507115', 'street': {'id': 1676040, 'name': 'On or near Bolton Street'}, 'longitude': '-0.144408'}",,,,123055698,,2024-05
anti-social-behaviour,Force,"{'latitude': '51.515088', 'street': {'id': 1676649, 'name': 'On or near Hills Place'}, 'longitude': '-0.140222'}",,,,123055634,,2024-05
anti-social-behaviour,Force,"{'latitude': '51.498553', 'street': {'id': 1677378, 'name': 'On or near Caxton Street'}, 'longitude': '-0.135291'}",,,,123055293,,2024-05
anti-social-behaviour,Force,"{'latitude': '51.513361', 'street': {'id': 1678384, 'name': 'On or near Theatre/concert Hall'}, 'longitude': '-0.128330'}",,,,123090120,,2024-05
anti-social-behaviour,Force,"{'latitude': '51.498709', 'street': {'id': 1676351, 'name': 'On or near Theatre/concert Hall'}, 'longitude': '-0.142286'}",,,,123089947,,2024-05
anti-social-behaviour,Force,"{'latitude': '51.518130', 'street': {'id': 1676977, 'name': 'On or near Parking Area'}, 'longitude': '-0.137604'}",,,,123053505,,2024-05
anti-social-behaviour,Force,"{'latitude': '51.494954', 'street': {'id': 1677131, 'name': 'On or near Greencoat Place'}, 'longitude': '-0.136864'}",,,,123055272,,2024-05
anti-social-behaviour,Force,"{'latitude': '51.519378', 'street': {'id': 1677300, 'name': 'On or near Goodge Street'}, 'longitude': '-0.135737'}",,,,123089819,,2024-05
anti-social-behaviour,Force,"{'latitude': '51.506985', 'street': {'id': 1678839, 'name': 'On or near Northumberland Avenue'}, 'longitude': '-0.124975'}",,,,123089567,,2024-05
anti-social-behaviour,Force,"{'latitude': '51.515984', 'street': {'id': 1679703, 'name': 'On or near Conference/exhibition Centre'}, 'longitude': '-0.118595'}",,,,123089513,,2024-05
anti-social-behaviour,Force,"{'latitude': '51.508450', 'street': {'id': 1676091, 'name': 'On or near Nightclub'}, 'longitude': '-0.143266'}",,,,123089381,,2024-05
anti-social-behaviour,Force,"{'latitude': '51.514064', 'street': {'id': 1679774, 'name': 'On or near Kean Street'}, 'longitude': '-0.118890'}",,,,123055257,,2024-05
anti-social-behaviour,Force,"{'latitude': '51.498553', 'street': {'id': 1677378, 'name': 'On or near Caxton Street'}, 'longitude': '-0.135291'}",,,,123089103,,2024-05
anti-social-behaviour,Force,"{'latitude': '51.508450', 'street': {'id': 1676091, 'name': 'On or near Nightclub'}, 'longitude': '-0.143266'}",,,,123055255,,2024-05
anti-social-behaviour,Force,"{'latitude': '51.516058', 'street': {'id': 1676584, 'name': 'On or near Market Place'}, 'longitude': '-0.140154'}",,,,123088941,,2024-05
anti-social-behaviour,Force,"{'latitude': '51.514286', 'street': {'id': 1677663, 'name': 'On or near Chapone Place'}, 'longitude': '-0.132818'}",,,,123055247,,2024-05
anti-social-behaviour,Force,"{'latitude': '51.493937', 'street': {'id': 1678154, 'name': 'On or near Page Street'}, 'longitude': '-0.129472'}",,,,123055194,,2024-05
anti-social-behaviour,Force,"{'latitude': '51.511623', 'street': {'id': 1678738, 'name': 'On or near Rose Street'}, 'longitude': '-0.125951'}",,,,123055188,,2024-05
anti-social-behaviour,Force,"{'latitude': '51.512495', 'street': {'id': 1676635, 'name': 'On or near Nightclub'}, 'longitude': '-0.138915'}",,,,123088599,,2024-05
anti-social-behaviour,Force,"{'latitude': '51.507623', 'street': {'id': 1678103, 'name': 'On or near Cockspur Street'}, 'longitude': '-0.130006'}",,,,123055171,,2024-05
anti-social-behaviour,Force,"{'latitude': '51.515753', 'street': {'id': 1676083, 'name': ""On or near John Prince's Street""}, 'longitude': '-0.143092'}",,,,123055169,,2024-05
anti-social-behaviour,Force,"{'latitude': '51.500978', 'street': {'id': 1678704, 'name': 'On or near Bridge Street'}, 'longitude': '-0.125524'}",,,,123055127,,2024-05
anti-social-behaviour,Force,"{'latitude': '51.514211', 'street': {'id': 1678632, 'name': 'On or near Monmouth Street'}, 'longitude': '-0.126984'}",,,,123055108,,2024-05
anti-social-behaviour,Force,"{'latitude': '51.511022', 'street': {'id': 1679585, 'name': 'On or near Strand'}, 'longitude': '-0.119880'}",,,,123055095,,2024-05
anti-social-behaviour,Force,"{'latitude': '51.498553', 'street': {'id': 1677378, 'name': 'On or near Caxton Street'}, 'longitude': '-0.135291'}",,,,123098194,,2024-05
anti-social-behaviour,Force,"{'latitude': '51.500608', 'street': {'id': 1681635, 'name': 'On or near Gray Street'}, 'longitude': '-0.108091'}",,,,123097910,,2024-05
anti-social-behaviour,Force,"{'latitude': '51.513205', 'street': {'id': 1678985, 'name': 'On or near Long Acre'}, 'longitude': '-0.124229'}",,,,123055002,,2024-05
anti-social-behaviour,Force,"{'latitude': '51.518739', 'street': {'id': 1677897, 'name': 'On or near Bayley Street'}, 'longitude': '-0.131785'}",,,,123088269,,2024-05
anti-social-behaviour,Force,"{'latitude': '51.498284', 'street': {'id': 1681059, 'name': 'On or near A302'}, 'longitude': '-0.110074'}",,,,123054979,,2024-05
anti-social-behaviour,Force,"{'latitude': '51.496466', 'street': {'id': 1676405, 'name': 'On or near Shopping Area'}, 'longitude': '-0.141499'}",,,,123093613,,2024-05
anti-social-behaviour,Force,"{'latitude': '51.495415', 'street': {'id': 1678026, 'name': 'On or near Monck Street'}, 'longitude': '-0.130794'}",,,,123054945,,2024-05
anti-social-behaviour,Force,"{'latitude': '51.513986', 'street': {'id': 1677410, 'name': 'On or near Duck Lane'}, 'longitude': '-0.134833'}",,,,123088242,,2024-05
anti-social-behaviour,Force,"{'latitude': '51.511856', 'street': {'id': 1678534, 'name': 'On or near Great Newport Street'}, 'longitude': '-0.127570'}",,,,123093625,,2024-05
anti-social-behaviour,Force,"{'latitude': '51.500978', 'street': {'id': 1678704, 'name': 'On or near Bridge Street'}, 'longitude': '-0.125524'}",,,,123093928,,2024-05
anti-social-behaviour,Force,"{'latitude': '51.506236', 'street': {'id': 1676347, 'name': 'On or near Parking Area'}, 'longitude': '-0.141322'}",,,,123094215,,2024-05
anti-social-behaviour,Force,"{'latitude': '51.509158', 'street': {'id': 1677370, 'name': 'On or near Theatre/concert Hall'}, 'longitude': '-0.134930'}",,,,123094484,,2024-05
anti-social-behaviour,Force,"{'latitude': '51.511783', 'street': {'id': 1678199, 'name': 'On or near Nightclub'}, 'longitude': '-0.129778'}",,,,123103954,,2024-05
anti-social-behaviour,Force,"{'latitude': '51.507725', 'street': {'id': 1678750, 'name': 'On or near Corner House Street'}, 'longitude': '-0.125708'}",,,,123088229,,2024-05
anti-social-behaviour,Force,"{'latitude': '51.518897', 'street': {'id': 1680092, 'name': 'On or near Red Lion Street'}, 'longitude': '-0.116904'}",,,,123095767,,2024-05
anti-social-behaviour,Force,"{'latitude': '51.513205', 'street': {'id': 1678985, 'name': 'On or near Long Acre'}, 'longitude': '-0.124229'}",,,,123097397,,2024-05
anti-social-behaviour,Force,"{'latitude': '51.495936', 'street': {'id': 1676456, 'name': 'On or near Carlisle Place'}, 'longitude': '-0.141491'}",,,,123087873,,2024-05
anti-social-behaviour,Force,"{'latitude': '51.513724', 'street': {'id': 1490731, 'name': 'On or near Fleet Street'}, 'longitude': '-0.111756'}",,,,123098730,,2024-05
anti-social-behaviour,Force,"{'latitude': '51.511623', 'street': {'id': 1678738, 'name': 'On or near Rose Street'}, 'longitude': '-0.125951'}",,,,123104204,,2024-05
anti-social-behaviour,Force,"{'latitude': '51.512780', 'street': {'id': 1677484, 'name': 'On or near Peter Street'}, 'longitude': '-0.134234'}",,,,123099385,,2024-05
anti-social-behaviour,Force,"{'latitude': '51.512544', 'street': {'id': 1675804, 'name': 'On or near Avery Row'}, 'longitude': '-0.145989'}",,,,123101288,,2024-05
anti-social-behaviour,Force,"{'latitude': '51.510152', 'street': {'id': 1677738, 'name': 'On or near Theatre/concert Hall'}, 'longitude': '-0.132382'}",,,,123104179,,2024-05
anti-social-behaviour,Force,"{'latitude': '51.517265', 'street': {'id': 1678861, 'name': 'On or near Museum Street'}, 'longitude': '-0.125071'}",,,,123054943,,2024-05
anti-social-behaviour,Force,"{'latitude': '51.499488', 'street': {'id': 1679222, 'name': 'On or near Hospital'}, 'longitude': '-0.118410'}",,,,123087653,,2024-05
anti-social-behaviour,Force,"{'latitude': '51.519609', 'street': {'id': 1676738, 'name': 'On or near Foley Street'}, 'longitude': '-0.139548'}",,,,123103060,,2024-05
anti-social-behaviour,Force,"{'latitude': '51.509786', 'street': {'id': 1678937, 'name': 'On or near Police Station'}, 'longitude': '-0.124658'}",,,,123054831,,2024-05
anti-social-behaviour,Force,"{'latitude': '51.501941', 'street': {'id': 1680853, 'name': 'On or near Lower Road'}, 'longitude': '-0.112127'}",,,,123103336,,2024-05
anti-social-behaviour,Force,"{'latitude': '51.518456', 'street': {'id': 1677599, 'name': 'On or near Percy Street'}, 'longitude': '-0.133209'}",,,,123054670,,2024-05
anti-social-behaviour,Force,"{'latitude': '51.511997', 'street': {'id': 1677958, 'name': 'On or near Macclesfield Street'}, 'longitude': '-0.131355'}",,,,123054625,,2024-05
anti-social-behaviour,Force,"{'latitude': '51.518456', 'street': {'id': 1677599, 'name': 'On or near Percy Street'}, 'longitude': '-0.133209'}",,,,123103841,,2024-05
anti-social-behaviour,Force,"{'latitude': '51.513498', 'street': {'id': 1678146, 'name': 'On or near Moor Street'}, 'longitude': '-0.130169'}",,,,123054398,,2024-05
anti-social-behaviour,Force,"{'latitude': '51.514523', 'street': {'id': 1678276, 'name': 'On or near Theatre/concert Hall'}, 'longitude': '-0.129580'}",,,,123081587,,2024-05
anti-social-behaviour,Force,"{'latitude': '51.516341', 'street': {'id': 1679597, 'name': 'On or near Nightclub'}, 'longitude': '-0.120151'}",,,,123087524,,2024-05
anti-social-behaviour,Force,"{'latitude': '51.513575', 'street': {'id': 1676335, 'name': 'On or near Pollen Street'}, 'longitude': '-0.142373'}",,,,123082643,,2024-05
anti-social-behaviour,Force,"{'latitude': '51.514246', 'street': {'id': 1677792, 'name': 'On or near Nightclub'}, 'longitude': '-0.131436'}",,,,123083329,,2024-05
anti-social-behaviour,Force,"{'latitude': '51.499488', 'street': {'id': 1679222, 'name': 'On or near Hospital'}, 'longitude': '-0.118410'}",,,,123083598,,2024-05
anti-social-behaviour,Force,"{'latitude': '51.495129', 'street': {'id': 1676936, 'name': 'On or near Francis Street'}, 'longitude': '-0.138240'}",,,,123054113,,2024-05
anti-social-behaviour,Force,"{'latitude': '51.511022', 'street': {'id': 1679585, 'name': 'On or near Strand'}, 'longitude': '-0.119880'}",,,,123084495,,2024-05
anti-social-behaviour,Force,"{'latitude': '51.511574', 'street': {'id': 1678643, 'name': 'On or near Garrick Street'}, 'longitude': '-0.126271'}",,,,123054010,,2024-05
anti-social-behaviour,Force,"{'latitude': '51.515598', 'street': {'id': 1678536, 'name': 'On or near St Giles High Street'}, 'longitude': '-0.127633'}",,,,123053869,,2024-05
anti-social-behaviour,Force,"{'latitude': '51.512780', 'street': {'id': 1677484, 'name': 'On or near Peter Street'}, 'longitude': '-0.134234'}",,,,123087285,,2024-05
anti-social-behaviour,Force,"{'latitude': '51.510520', 'street': {'id': 1677019, 'name': 'On or near Glasshouse Street'}, 'longitude': '-0.137439'}",,,,123087112,,2024-05
anti-social-behaviour,Force,"{'latitude': '51.504507', 'street': {'id': 1681118, 'name': 'On or near Cornwall Road'}, 'longitude': '-0.110609'}",,,,123086928,,2024-05
anti-social-behaviour,Force,"{'latitude': '51.518456', 'street': {'id': 1677599, 'name': 'On or near Percy Street'}, 'longitude': '-0.133209'}",,,,123053497,,2024-05
anti-social-behaviour,Force,"{'latitude': '51.511623', 'street': {'id': 1678738, 'name': 'On or near Rose Street'}, 'longitude': '-0.125951'}",,,,123053389,,2024-05
anti-social-behaviour,Force,"{'latitude': '51.495129', 'street': {'id': 1676936, 'name': 'On or near Francis Street'}, 'longitude': '-0.138240'}",,,,123053263,,2024-05
anti-social-behaviour,Force,"{'latitude': '51.508480', 'street': {'id': 1675418, 'name': 'On or near Hill Street'}, 'longitude': '-0.148864'}",,,,123086742,,2024-05
anti-social-behaviour,Force,"{'latitude': '51.497497', 'street': {'id': 1677447, 'name': 'On or near Strutton Ground'}, 'longitude': '-0.133922'}",,,,123053176,,2024-05
anti-social-behaviour,Force,"{'latitude': '51.510141', 'street': {'id': 1676248, 'name': 'On or near Grafton Street'}, 'longitude': '-0.143046'}",,,,123086721,,2024-05
anti-social-behaviour,Force,"{'latitude': '51.510433', 'street': {'id': 1676487, 'name': 'On or near Parking Area'}, 'longitude': '-0.140455'}",,,,123086645,,2024-05
anti-social-behaviour,Force,"{'latitude': '51.492976', 'street': {'id': 1677806, 'name': 'On or near Vincent Street'}, 'longitude': '-0.131211'}",,,,123053174,,2024-05
anti-social-behaviour,Force,"{'latitude': '51.502823', 'street': {'id': 1679478, 'name': 'On or near Theme/adventure Park'}, 'longitude': '-0.119257'}",,,,123086465,,2024-05
anti-social-behaviour,Force,"{'latitude': '51.507970', 'street': {'id': 1677656, 'name': 'On or near Charles Ii Street'}, 'longitude': '-0.133162'}",,,,123064437,,2024-05
anti-social-behaviour,Force,"{'latitude': '51.514064', 'street': {'id': 1679774, 'name': 'On or near Kean Street'}, 'longitude': '-0.118890'}",,,,123064538,,2024-05
anti-social-behaviour,Force,"{'latitude': '51.514185', 'street': {'id': 1677307, 'name': 'On or near Berwick Street'}, 'longitude': '-0.135459'}",,,,123064563,,2024-05
anti-social-behaviour,Force,"{'latitude': '51.511096', 'street': {'id': 1679247, 'name': 'On or near Southampton Street'}, 'longitude': '-0.122226'}",,,,123064796,,2024-05
anti-social-behaviour,Force,"{'latitude': '51.507446', 'street': {'id': 1677030, 'name': 'On or near Masons Yard'}, 'longitude': '-0.137521'}",,,,123086154,,2024-05
anti-social-behaviour,Force,"{'latitude': '51.518323', 'street': {'id': 1678925, 'name': 'On or near Gilbert Place'}, 'longitude': '-0.124840'}",,,,123059484,,2024-05
anti-social-behaviour,Force,"{'latitude': '51.506327', 'street': {'id': 1675760, 'name': 'On or near Shepherd Market'}, 'longitude': '-0.146357'}",,,,123086140,,2024-05
anti-social-behaviour,Force,"{'latitude': '51.512764', 'street': {'id': 1677421, 'name': 'On or near Further/higher Educational Building'}, 'longitude': '-0.134892'}",,,,123063447,,2024-05
anti-social-behaviour,Force,"{'latitude': '51.505942', 'street': {'id': 1678964, 'name': 'On or near Whitehall Court'}, 'longitude': '-0.124412'}",,,,123063543,,2024-05
anti-social-behaviour,Force,"{'latitude': '51.496466', 'street': {'id': 1676405, 'name': 'On or near Shopping Area'}, 'longitude': '-0.141499'}",,,,123059811,,2024-05
anti-social-behaviour,Force,"{'latitude': '51.510513', 'street': {'id': 1678829, 'name': 'On or near Bedford Court'}, 'longitude': '-0.125161'}",,,,123086131,,2024-05
anti-social-behaviour,Force,"{'latitude': '51.496466', 'street': {'id': 1676405, 'name': 'On or near Shopping Area'}, 'longitude': '-0.141499'}",,,,123059813,,2024-05
anti-social-behaviour,Force,"{'latitude': '51.515460', 'street': {'id': 1679674, 'name': 'On or near Wild Court'}, 'longitude': '-0.119611'}",,,,123085990,,2024-05
anti-social-behaviour,Force,"{'latitude': '51.513970', 'street': {'id': 1677442, 'name': 'On or near Wardour Street'}, 'longitude': '-0.134387'}",,,,123053029,,2024-05
anti-social-behaviour,Force,"{'latitude': '51.519378', 'street': {'id': 1677300, 'name': 'On or near Goodge Street'}, 'longitude': '-0.135737'}",,,,123085951,,2024-05
anti-social-behaviour,Force,"{'latitude': '51.515430', 'street': {'id': 1679223, 'name': 'On or near Theatre/concert Hall'}, 'longitude': '-0.122797'}",,,,123059902,,2024-05
anti-social-behaviour,Force,"{'latitude': '51.515684', 'street': {'id': 1677259, 'name': 'On or near Nightclub'}, 'longitude': '-0.135874'}",,,,123060003,,2024-05
anti-social-behaviour,Force,"{'latitude': '51.516820', 'street': {'id': 1678501, 'name': 'On or near Dyott Street'}, 'longitude': '-0.127583'}",,,,123060159,,2024-05
anti-social-behaviour,Force,"{'latitude': '51.518456', 'street': {'id': 1677599, 'name': 'On or near Percy Street'}, 'longitude': '-0.133209'}",,,,123052876,,2024-05
anti-social-behaviour,Force,"{'latitude': '51.500978', 'street': {'id': 1678704, 'name': 'On or near Bridge Street'}, 'longitude': '-0.125524'}",,,,123060308,,2024-05
anti-social-behaviour,Force,"{'latitude': '51.513970', 'street': {'id': 1677442, 'name': 'On or near Wardour Street'}, 'longitude': '-0.134387'}",,,,123069087,,2024-05
anti-social-behaviour,Force,"{'latitude': '51.513090', 'street': {'id': 1677384, 'name': 'On or near Hopkins Street'}, 'longitude': '-0.135043'}",,,,123083786,,2024-05
anti-social-behaviour,Force,"{'latitude': '51.498553', 'street': {'id': 1677378, 'name': 'On or near Caxton Street'}, 'longitude': '-0.135291'}",,,,123059678,,2024-05
anti-social-behaviour,Force,"{'latitude': '51.511022', 'street': {'id': 1679585, 'name': 'On or near Strand'}, 'longitude': '-0.119880'}",,,,123075610,,2024-05
anti-social-behaviour,Force,"{'latitude': '51.507623', 'street': {'id': 1678103, 'name': 'On or near Cockspur Street'}, 'longitude': '-0.130006'}",,,,123053723,,2024-05
anti-social-behaviour,Force,"{'latitude': '51.507394', 'street': {'id': 1678399, 'name': 'On or near Charing Cross'}, 'longitude': '-0.128042'}",,,,123055475,,2024-05
anti-social-behaviour,Force,"{'latitude': '51.506985', 'street': {'id': 1678839, 'name': 'On or near Northumberland Avenue'}, 'longitude': '-0.124975'}",,,,123055477,,2024-05
anti-social-behaviour,Force,"{'latitude': '51.504176', 'street': {'id': 1675117, 'name': 'On or near Hamilton Mews'}, 'longitude': '-0.149643'}",,,,123096544,,2024-05
anti-social-behaviour,Force,"{'latitude': '51.499086', 'street': {'id': 1681507, 'name': 'On or near Gerridge Street'}, 'longitude': '-0.108471'}",,,,123066716,,2024-05
anti-social-behaviour,Force,"{'latitude': '51.514247', 'street': {'id': 1676736, 'name': 'On or near Great Marlborough Street'}, 'longitude': '-0.139406'}",,,,123069261,,2024-05
anti-social-behaviour,Force,"{'latitude': '51.497497', 'street': {'id': 1677447, 'name': 'On or near Strutton Ground'}, 'longitude': '-0.133922'}",,,,123069625,,2024-05
anti-social-behaviour,Force,"{'latitude': '51.517741', 'street': {'id': 1676209, 'name': 'On or near Langham Place'}, 'longitude': '-0.143126'}",,,,123069786,,2024-05
anti-social-behaviour,Force,"{'latitude': '51.507938', 'street': {'id': 1678191, 'name': 'On or near Trafalgar Square'}, 'longitude': '-0.128898'}",,,,123069828,,2024-05
anti-social-behaviour,Force,"{'latitude': '51.500608', 'street': {'id': 1681635, 'name': 'On or near Gray Street'}, 'longitude': '-0.108091'}",,,,123072250,,2024-05
anti-social-behaviour,Force,"{'latitude': '51.517114', 'street': {'id': 1679776, 'name': 'On or near Gate Street'}, 'longitude': '-0.119009'}",,,,123082535,,2024-05
anti-social-behaviour,Force,"{'latitude': '51.513575', 'street': {'id': 1676335, 'name': 'On or near Pollen Street'}, 'longitude': '-0.142373'}",,,,123070199,,2024-05
anti-social-behaviour,Force,"{'latitude': '51.511022', 'street': {'id': 1679585, 'name': 'On or near Strand'}, 'longitude': '-0.119880'}",,,,123070436,,2024-05
anti-social-behaviour,Force,"{'latitude': '51.517742', 'street': {'id': 1678770, 'name': 'On or near Little Russell Street'}, 'longitude': '-0.125614'}",,,,123070489,,2024-05
anti-social-behaviour,Force,"{'latitude': '51.518130', 'street': {'id': 1676977, 'name': 'On or near Parking Area'}, 'longitude': '-0.137604'}",,,,123070804,,2024-05
anti-social-behaviour,Force,"{'latitude': '51.511623', 'street': {'id': 1678738, 'name': 'On or near Rose Street'}, 'longitude': '-0.125951'}",,,,123071006,,2024-05
anti-social-behaviour,Force,"{'latitude': '51.498284', 'street': {'id': 1681059, 'name': 'On or near A302'}, 'longitude': '-0.110074'}",,,,123071709,,2024-05
anti-social-behaviour,Force,"{'latitude': '51.514209', 'street': {'id': 1677099, 'name': 'On or near Parking Area'}, 'longitude': '-0.137000'}",,,,123079022,,2024-05
anti-social-behaviour,Force,"{'latitude': '51.511359', 'street': {'id': 1675825, 'name': 'On or near Grosvenor Hill'}, 'longitude': '-0.146095'}",,,,123082410,,2024-05
anti-social-behaviour,Force,"{'latitude': '51.508351', 'street': {'id': 1681422, 'name': 'On or near Conference/exhibition Centre'}, 'longitude': '-0.108355'}",,,,123072011,,2024-05
anti-social-behaviour,Force,"{'latitude': '51.512059', 'street': {'id': 1679743, 'name': 'On or near A301'}, 'longitude': '-0.118929'}",,,,123081917,,2024-05
anti-social-behaviour,Force,"{'latitude': '51.511860', 'street': {'id': 1676890, 'name': 'On or near Upper John Street'}, 'longitude': '-0.137975'}",,,,123081627,,2024-05
anti-social-behaviour,Force,"{'latitude': '51.500978', 'street': {'id': 1678704, 'name': 'On or near Bridge Street'}, 'longitude': '-0.125524'}",,,,123081618,,2024-05
anti-social-behaviour,Force,"{'latitude': '51.514867', 'street': {'id': 1676714, 'name': 'On or near Further/higher Educational Building'}, 'longitude': '-0.138790'}",,,,123081380,,2024-05
anti-social-behaviour,Force,"{'latitude': '51.497497', 'street': {'id': 1677447, 'name': 'On or near Strutton Ground'}, 'longitude': '-0.133922'}",,,,123081084,,2024-05
anti-social-behaviour,Force,"{'latitude': '51.494818', 'street': {'id': 1679973, 'name': 'On or near Pratt Walk'}, 'longitude': '-0.117089'}",,,,123080871,,2024-05
anti-social-behaviour,Force,"{'latitude': '51.503196', 'street': {'id': 1678183, 'name': 'On or near Downing Street'}, 'longitude': '-0.127032'}",,,,123080516,,2024-05
anti-social-behaviour,Force,"{'latitude': '51.495415', 'street': {'id': 1678026, 'name': 'On or near Monck Street'}, 'longitude': '-0.130794'}",,,,123079867,,2024-05
anti-social-behaviour,Force,"{'latitude': '51.507096', 'street': {'id': 1678963, 'name': 'On or near Embankment Place'}, 'longitude': '-0.122909'}",,,,123079864,,2024-05
anti-social-behaviour,Force,"{'latitude': '51.511312', 'street': {'id': 1677127, 'name': 'On or near Lower James Street'}, 'longitude': '-0.136326'}",,,,123072155,,2024-05
anti-social-behaviour,Force,"{'latitude': '51.495591', 'street': {'id': 1677126, 'name': 'On or near Greencoat Row'}, 'longitude': '-0.136794'}",,,,123103682,,2024-05
anti-social-behaviour,Force,"{'latitude': '51.506720', 'street': {'id': 1675553, 'name': 'On or near Curzon Street'}, 'longitude': '-0.147883'}",,,,123103308,,2024-05
anti-social-behaviour,Force,"{'latitude': '51.518405', 'street': {'id': 1679695, 'name': 'On or near Procter Street'}, 'longitude': '-0.119302'}",,,,123079098,,2024-05
anti-social-behaviour,Force,"{'latitude': '51.500608', 'street': {'id': 1681635, 'name': 'On or near Gray Street'}, 'longitude': '-0.108091'}",,,,123102989,,2024-05
anti-social-behaviour,Force,"{'latitude': '51.507576', 'street': {'id': 1676403, 'name': 'On or near Nightclub'}, 'longitude': '-0.141776'}",,,,123102506,,2024-05
anti-social-behaviour,Force,"{'latitude': '51.516820', 'street': {'id': 1678501, 'name': 'On or near Dyott Street'}, 'longitude': '-0.127583'}",,,,123101859,,2024-05
anti-social-behaviour,Force,"{'latitude': '51.515004', 'street': {'id': 1678816, 'name': 'On or near B401'}, 'longitude': '-0.125352'}",,,,123101517,,2024-05
anti-social-behaviour,Force,"{'latitude': '51.513205', 'street': {'id': 1678985, 'name': 'On or near Long Acre'}, 'longitude': '-0.124229'}",,,,123101483,,2024-05
anti-social-behaviour,Force,"{'latitude': '51.499488', 'street': {'id': 1679222, 'name': 'On or near Hospital'}, 'longitude': '-0.118410'}",,,,123101424,,2024-05
anti-social-behaviour,Force,"{'latitude': '51.517516', 'street': {'id': 1677426, 'name': 'On or near Gresse Street'}, 'longitude': '-0.134012'}",,,,123101091,,2024-05
anti-social-behaviour,Force,"{'latitude': '51.517265', 'street': {'id': 1678861, 'name': 'On or near Museum Street'}, 'longitude': '-0.125071'}",,,,123100912,,2024-05
anti-social-behaviour,Force,"{'latitude': '51.499816', 'street': {'id': 1680770, 'name': 'On or near Murphy Street'}, 'longitude': '-0.112489'}",,,,123100734,,2024-05
anti-social-behaviour,Force,"{'latitude': '51.511623', 'street': {'id': 1678738, 'name': 'On or near Rose Street'}, 'longitude': '-0.125951'}",,,,123100341,,2024-05
anti-social-behaviour,Force,"{'latitude': '51.499558', 'street': {'id': 1677236, 'name': 'On or near Petty France'}, 'longitude': '-0.135739'}",,,,123100335,,2024-05
anti-social-behaviour,Force,"{'latitude': '51.508450', 'street': {'id': 1676091, 'name': 'On or near Nightclub'}, 'longitude': '-0.143266'}",,,,123100298,,2024-05
anti-social-behaviour,Force,"{'latitude': '51.512789', 'street': {'id': 1677293, 'name': 'On or near Ingestre Place'}, 'longitude': '-0.135372'}",,,,123099901,,2024-05
anti-social-behaviour,Force,"{'latitude': '51.507286', 'street': {'id': 1678357, 'name': 'On or near Parking Area'}, 'longitude': '-0.128903'}",,,,123072313,,2024-05
anti-social-behaviour,Force,"{'latitude': '51.512117', 'street': {'id': 1679112, 'name': 'On or near Shopping Area'}, 'longitude': '-0.123121'}",,,,123068680,,2024-05
anti-social-behaviour,Force,"{'latitude': '51.507182', 'street': {'id': 1678986, 'name': 'On or near Craven Street'}, 'longitude': '-0.124332'}",,,,123068774,,2024-05
anti-social-behaviour,Force,"{'latitude': '51.500978', 'street': {'id': 1678704, 'name': 'On or near Bridge Street'}, 'longitude': '-0.125524'}",,,,123068927,,2024-05
anti-social-behaviour,Force,"{'latitude': '51.501941', 'street': {'id': 1680853, 'name': 'On or near Lower Road'}, 'longitude': '-0.112127'}",,,,123069041,,2024-05
anti-social-behaviour,Force,"{'latitude': '51.512802', 'street': {'id': 1679061, 'name': 'On or near James Street'}, 'longitude': '-0.123770'}",,,,123072327,,2024-05
anti-social-behaviour,Force,"{'latitude': '51.496466', 'street': {'id': 1676405, 'name': 'On or near Shopping Area'}, 'longitude': '-0.141499'}",,,,123079491,,2024-05
anti-social-behaviour,Force,"{'latitude': '51.511623', 'street': {'id': 1678738, 'name': 'On or near Rose Street'}, 'longitude': '-0.125951'}",,,,123073917,,2024-05
anti-social-behaviour,Force,"{'latitude': '51.497878', 'street': {'id': 1681093, 'name': 'On or near Further/higher Educational Building'}, 'longitude': '-0.109976'}",,,,123076383,,2024-05
anti-social-behaviour,Force,"{'latitude': '51.503196', 'street': {'id': 1678183, 'name': 'On or near Downing Street'}, 'longitude': '-0.127032'}",,,,123077386,,2024-05
anti-social-behaviour,Force,"{'latitude': '51.516295', 'street': {'id': 1678131, 'name': 'On or near Conference/exhibition Centre'}, 'longitude': '-0.129487'}",,,,123077482,,2024-05
anti-social-behaviour,Force,"{'latitude': '51.499488', 'street': {'id': 1679222, 'name': 'On or near Hospital'}, 'longitude': '-0.118410'}",,,,123077522,,2024-05
anti-social-behaviour,Force,"{'latitude': '51.515939', 'street': {'id': 1677739, 'name': 'On or near Soho Street'}, 'longitude': '-0.132693'}",,,,123079015,,2024-05
anti-social-behaviour,Force,"{'latitude': '51.512059', 'street': {'id': 1679743, 'name': 'On or near A301'}, 'longitude': '-0.118929'}",,,,123063901,,2024-05
anti-social-behaviour,Force,"{'latitude': '51.495936', 'street': {'id': 1676456, 'name': 'On or near Carlisle Place'}, 'longitude': '-0.141491'}",,,,123056364,,2024-05
anti-social-behaviour,Force,"{'latitude': '51.514536', 'street': {'id': 1676666, 'name': 'On or near Nightclub'}, 'longitude': '-0.140043'}",,,,123086402,,2024-05
anti-social-behaviour,Force,"{'latitude': '51.514185', 'street': {'id': 1677307, 'name': 'On or near Berwick Street'}, 'longitude': '-0.135459'}",,,,123090908,,2024-05
anti-social-behaviour,Force,"{'latitude': '51.510900', 'street': {'id': 1678414, 'name': 'On or near Theatre/concert Hall'}, 'longitude': '-0.127984'}",,,,123103937,,2024-05
anti-social-behaviour,Force,"{'latitude': '51.518744', 'street': {'id': 1679854, 'name': 'On or near Dane Street'}, 'longitude': '-0.118596'}",,,,123104284,,2024-05
anti-social-behaviour,Force,"{'latitude': '51.507725', 'street': {'id': 1678750, 'name': 'On or near Corner House Street'}, 'longitude': '-0.125708'}",,,,123104289,,2024-05
anti-social-behaviour,Force,"{'latitude': '51.507843', 'street': {'id': 1675601, 'name': 'On or near Charles Street'}, 'longitude': '-0.147232'}",,,,123104294,,2024-05
anti-social-behaviour,Force,"{'latitude': '51.515753', 'street': {'id': 1676083, 'name': ""On or near John Prince's Street""}, 'longitude': '-0.143092'}",,,,123104358,,2024-05
anti-social-behaviour,Force,"{'latitude': '51.503044', 'street': {'id': 1681631, 'name': 'On or near The Cut'}, 'longitude': '-0.107428'}",,,,123104493,,2024-05
anti-social-behaviour,Force,"{'latitude': '51.495936', 'street': {'id': 1676456, 'name': 'On or near Carlisle Place'}, 'longitude': '-0.141491'}",,,,123104582,,2024-05
anti-social-behaviour,Force,"{'latitude': '51.507832', 'street': {'id': 1679120, 'name': 'On or near Villiers Street'}, 'longitude': '-0.123383'}",,,,123104903,,2024-05
anti-social-behaviour,Force,"{'latitude': '51.506985', 'street': {'id': 1678839, 'name': 'On or near Northumberland Avenue'}, 'longitude': '-0.124975'}",,,,123104916,,2024-05
anti-social-behaviour,Force,"{'latitude': '51.496320', 'street': {'id': 1676802, 'name': 'On or near Thirleby Road'}, 'longitude': '-0.138508'}",,,,123098927,,2024-05
anti-social-behaviour,Force,"{'latitude': '51.513370', 'street': {'id': 1676871, 'name': 'On or near Newburgh Street'}, 'longitude': '-0.138519'}",,,,123099075,,2024-05
anti-social-behaviour,Force,"{'latitude': '51.510520', 'street': {'id': 1677019, 'name': 'On or near Glasshouse Street'}, 'longitude': '-0.137439'}",,,,123099311,,2024-05
anti-social-behaviour,Force,"{'latitude': '51.519378', 'street': {'id': 1677300, 'name': 'On or near Goodge Street'}, 'longitude': '-0.135737'}",,,,123099627,,2024-05
anti-social-behaviour,Force,"{'latitude': '51.514832', 'street': {'id': 1678939, 'name': 'On or near Betterton Street'}, 'longitude': '-0.124162'}",,,,123070036,,2024-05
anti-social-behaviour,Force,"{'latitude': '51.514867', 'street': {'id': 1676714, 'name': 'On or near Further/higher Educational Building'}, 'longitude': '-0.138790'}",,,,123071041,,2024-05
anti-social-behaviour,Force,"{'latitude': '51.494818', 'street': {'id': 1679973, 'name': 'On or near Pratt Walk'}, 'longitude': '-0.117089'}",,,,123068401,,2024-05
anti-social-behaviour,Force,"{'latitude': '51.519162', 'street': {'id': 1677191, 'name': 'On or near Goodge Street'}, 'longitude': '-0.136308'}",,,,123068254,,2024-05
anti-social-behaviour,Force,"{'latitude': '51.498284', 'street': {'id': 1681059, 'name': 'On or near A302'}, 'longitude': '-0.110074'}",,,,123068152,,2024-05
anti-social-behaviour,Force,"{'latitude': '51.514010', 'street': {'id': 1678889, 'name': 'On or near Parking Area'}, 'longitude': '-0.124528'}",,,,123067272,,2024-05
anti-social-behaviour,Force,"{'latitude': '51.510729', 'street': {'id': 1677342, 'name': 'On or near Denman Street'}, 'longitude': '-0.135283'}",,,,123066794,,2024-05
anti-social-behaviour,Force,"{'latitude': '51.498284', 'street': {'id': 1681059, 'name': 'On or near A302'}, 'longitude': '-0.110074'}",,,,123066624,,2024-05
anti-social-behaviour,Force,"{'latitude': '51.503196', 'street': {'id': 1678183, 'name': 'On or near Downing Street'}, 'longitude': '-0.127032'}",,,,123066549,,2024-05
anti-social-behaviour,Force,"{'latitude': '51.499071', 'street': {'id': 1679949, 'name': 'On or near Hospital'}, 'longitude': '-0.117649'}",,,,123066227,,2024-05
anti-social-behaviour,Force,"{'latitude': '51.515598', 'street': {'id': 1678536, 'name': 'On or near St Giles High Street'}, 'longitude': '-0.127633'}",,,,123066132,,2024-05
anti-social-behaviour,Force,"{'latitude': '51.515598', 'street': {'id': 1678536, 'name': 'On or near St Giles High Street'}, 'longitude': '-0.127633'}",,,,123066054,,2024-05
anti-social-behaviour,Force,"{'latitude': '51.516178', 'street': {'id': 1677833, 'name': 'On or near Further/higher Educational Building'}, 'longitude': '-0.131904'}",,,,123065950,,2024-05
anti-social-behaviour,Force,"{'latitude': '51.511703', 'street': {'id': 1678351, 'name': 'On or near Little Newport Street'}, 'longitude': '-0.128701'}",,,,123065650,,2024-05
anti-social-behaviour,Force,"{'latitude': '51.508087', 'street': {'id': 1678961, 'name': 'On or near Nightclub'}, 'longitude': '-0.124122'}",,,,123065402,,2024-05
anti-social-behaviour,Force,"{'latitude': '51.518456', 'street': {'id': 1677599, 'name': 'On or near Percy Street'}, 'longitude': '-0.133209'}",,,,123065314,,2024-05
anti-social-behaviour,Force,"{'latitude': '51.516037', 'street': {'id': 1678369, 'name': 'On or near Earnshaw Street'}, 'longitude': '-0.128682'}",,,,123065304,,2024-05
anti-social-behaviour,Force,"{'latitude': '51.516568', 'street': {'id': 1679291, 'name': 'On or near Newton Street'}, 'longitude': '-0.121381'}",,,,123097710,,2024-05
anti-social-behaviour,Force,"{'latitude': '51.503196', 'street': {'id': 1678183, 'name': 'On or near Downing Street'}, 'longitude': '-0.127032'}",,,,123096850,,2024-05
anti-social-behaviour,Force,"{'latitude': '51.512339', 'street': {'id': 1677616, 'name': 'On or near Nightclub'}, 'longitude': '-0.133618'}",,,,123096836,,2024-05
anti-social-behaviour,Force,"{'latitude': '51.500978', 'street': {'id': 1678704, 'name': 'On or near Bridge Street'}, 'longitude': '-0.125524'}",,,,123096830,,2024-05
anti-social-behaviour,Force,"{'latitude': '51.509491', 'street': {'id': 1678539, 'name': 'On or near William Iv Street'}, 'longitude': '-0.125924'}",,,,123096778,,2024-05
anti-social-behaviour,Force,"{'latitude': '51.508450', 'street': {'id': 1676091, 'name': 'On or near Nightclub'}, 'longitude': '-0.143266'}",,,,123096690,,2024-05
anti-social-behaviour,Force,"{'latitude': '51.507159', 'street': {'id': 1682020, 'name': 'On or near Rennie Street'}, 'longitude': '-0.105571'}",,,,123096569,,2024-05
anti-social-behaviour,Force,"{'latitude': '51.514971', 'street': {'id': 1677609, 'name': 'On or near Carlisle Street'}, 'longitude': '-0.133438'}",,,,123096263,,2024-05
anti-social-behaviour,Force,"{'latitude': '51.511022', 'street': {'id': 1679585, 'name': 'On or near Strand'}, 'longitude': '-0.119880'}",,,,123096255,,2024-05
anti-social-behaviour,Force,"{'latitude': '51.516037', 'street': {'id': 1678369, 'name': 'On or near Earnshaw Street'}, 'longitude': '-0.128682'}",,,,123094830,,2024-05
anti-social-behaviour,Force,"{'latitude': '51.512855', 'street': {'id': 1678860, 'name': 'On or near B402'}, 'longitude': '-0.124820'}",,,,123093973,,2024-05
anti-social-behaviour,Force,"{'latitude': '51.511359', 'street': {'id': 1675825, 'name': 'On or near Grosvenor Hill'}, 'longitude': '-0.146095'}",,,,123093212,,2024-05
anti-social-behaviour,Force,"{'latitude': '51.494745', 'street': {'id': 1677511, 'name': 'On or near Elverton Street'}, 'longitude': '-0.133933'}",,,,123092988,,2024-05
anti-social-behaviour,Force,"{'latitude': '51.518043', 'street': {'id': 1679235, 'name': 'On or near Further/higher Educational Building'}, 'longitude': '-0.122651'}",,,,123092975,,2024-05
anti-social-behaviour,Force,"{'latitude': '51.496440', 'street': {'id': 1677223, 'name': 'On or near Spencer Place'}, 'longitude': '-0.135867'}",,,,123092745,,2024-05
anti-social-behaviour,Force,"{'latitude': '51.511790', 'street': {'id': 1677744, 'name': 'On or near A401'}, 'longitude': '-0.132459'}",,,,123092736,,2024-05
anti-social-behaviour,Force,"{'latitude': '51.514867', 'street': {'id': 1676714, 'name': 'On or near Further/higher Educational Building'}, 'longitude': '-0.138790'}",,,,123092322,,2024-05
anti-social-behaviour,Force,"{'latitude': '51.500978', 'street': {'id': 1678704, 'name': 'On or near Bridge Street'}, 'longitude': '-0.125524'}",,,,123091645,,2024-05
anti-social-behaviour,Force,"{'latitude': '51.513512', 'street': {'id': 1678639, 'name': 'On or near Theatre/concert Hall'}, 'longitude': '-0.126401'}",,,,123090347,,2024-05
anti-social-behaviour,Force,"{'latitude': '51.518456', 'street': {'id': 1677599, 'name': 'On or near Percy Street'}, 'longitude': '-0.133209'}",,,,123090072,,2024-05
anti-social-behaviour,Force,"{'latitude': '51.494661', 'street': {'id': 1676997, 'name': 'On or near Coburg Close'}, 'longitude': '-0.137668'}",,,,123071063,,2024-05
anti-social-behaviour,Force,"{'latitude': '51.513205', 'street': {'id': 1678985, 'name': 'On or near Long Acre'}, 'longitude': '-0.124229'}",,,,123089675,,2024-05
anti-social-behaviour,Force,"{'latitude': '51.498284', 'street': {'id': 1681059, 'name': 'On or near A302'}, 'longitude': '-0.110074'}",,,,123089191,,2024-05
anti-social-behaviour,Force,"{'latitude': '51.495415', 'street': {'id': 1678026, 'name': 'On or near Monck Street'}, 'longitude': '-0.130794'}",,,,123089025,,2024-05
anti-social-behaviour,Force,"{'latitude': '51.507115', 'street': {'id': 1676040, 'name': 'On or near Bolton Street'}, 'longitude': '-0.144408'}",,,,123088902,,2024-05
anti-social-behaviour,Force,"{'latitude': '51.516341', 'street': {'id': 1679597, 'name': 'On or near Nightclub'}, 'longitude': '-0.120151'}",,,,123098213,,2024-05
anti-social-behaviour,Force,"{'latitude': '51.512339', 'street': {'id': 1677616, 'name': 'On or near Nightclub'}, 'longitude': '-0.133618'}",,,,123088059,,2024-05
anti-social-behaviour,Force,"{'latitude': '51.513494', 'street': {'id': 1677083, 'name': ""On or near Dufour's Place""}, 'longitude': '-0.137289'}",,,,123087844,,2024-05
anti-social-behaviour,Force,"{'latitude': '51.515088', 'street': {'id': 1676649, 'name': 'On or near Hills Place'}, 'longitude': '-0.140222'}",,,,123085273,,2024-05
anti-social-behaviour,Force,"{'latitude': '51.497540', 'street': {'id': 1677294, 'name': 'On or near Victoria Street'}, 'longitude': '-0.135490'}",,,,123062010,,2024-05
anti-social-behaviour,Force,"{'latitude': '51.517741', 'street': {'id': 1676209, 'name': 'On or near Langham Place'}, 'longitude': '-0.143126'}",,,,123072189,,2024-05
anti-social-behaviour,Force,"{'latitude': '51.499692', 'street': {'id': 1680405, 'name': 'On or near Westminster Bridge Road'}, 'longitude': '-0.114266'}",,,,123085254,,2024-05
anti-social-behaviour,Force,"{'latitude': '51.509886', 'street': {'id': 1678385, 'name': 'On or near Irving Street'}, 'longitude': '-0.128646'}",,,,123085029,,2024-05
anti-social-behaviour,Force,"{'latitude': '51.512059', 'street': {'id': 1679743, 'name': 'On or near A301'}, 'longitude': '-0.118929'}",,,,123067263,,2024-05
anti-social-behaviour,Force,"{'latitude': '51.510468', 'street': {'id': 1678029, 'name': 'On or near Leicester Square'}, 'longitude': '-0.130769'}",,,,123067978,,2024-05
anti-social-behaviour,Force,"{'latitude': '51.497580', 'street': {'id': 1680887, 'name': 'On or near Police Station'}, 'longitude': '-0.111573'}",,,,123085010,,2024-05
anti-social-behaviour,Force,"{'latitude': '51.507725', 'street': {'id': 1678750, 'name': 'On or near Corner House Street'}, 'longitude': '-0.125708'}",,,,123084532,,2024-05
anti-social-behaviour,Force,"{'latitude': '51.514012', 'street': {'id': 1677997, 'name': 'On or near Nightclub'}, 'longitude': '-0.131078'}",,,,123084178,,2024-05
anti-social-behaviour,Force,"{'latitude': '51.503196', 'street': {'id': 1678183, 'name': 'On or near Downing Street'}, 'longitude': '-0.127032'}",,,,123068690,,2024-05
anti-social-behaviour,Force,"{'latitude': '51.518043', 'street': {'id': 1679235, 'name': 'On or near Further/higher Educational Building'}, 'longitude': '-0.122651'}",,,,123052927,,2024-05
anti-social-behaviour,Force,"{'latitude': '51.513970', 'street': {'id': 1677442, 'name': 'On or near Wardour Street'}, 'longitude': '-0.134387'}",,,,123060537,,2024-05
anti-social-behaviour,Force,"{'latitude': '51.514185', 'street': {'id': 1677307, 'name': 'On or near Berwick Street'}, 'longitude': '-0.135459'}",,,,123060647,,2024-05
anti-social-behaviour,Force,"{'latitude': '51.504717', 'street': {'id': 1675503, 'name': 'On or near Down Street Mews'}, 'longitude': '-0.148022'}",,,,123060694,,2024-05
anti-social-behaviour,Force,"{'latitude': '51.510729', 'street': {'id': 1677342, 'name': 'On or near Denman Street'}, 'longitude': '-0.135283'}",,,,123060991,,2024-05
anti-social-behaviour,Force,"{'latitude': '51.507725', 'street': {'id': 1678750, 'name': 'On or near Corner House Street'}, 'longitude': '-0.125708'}",,,,123061254,,2024-05
anti-social-behaviour,Force,"{'latitude': '51.517476', 'street': {'id': 1677079, 'name': 'On or near Supermarket'}, 'longitude': '-0.136579'}",,,,123061426,,2024-05
anti-social-behaviour,Force,"{'latitude': '51.502823', 'street': {'id': 1679478, 'name': 'On or near Theme/adventure Park'}, 'longitude': '-0.119257'}",,,,123061782,,2024-05
anti-social-behaviour,Force,"{'latitude': '51.515580', 'street': {'id': 1677445, 'name': 'On or near Great Chapel Street'}, 'longitude': '-0.134437'}",,,,123061966,,2024-05
anti-social-behaviour,Force,"{'latitude': '51.495129', 'street': {'id': 1676936, 'name': 'On or near Francis Street'}, 'longitude': '-0.138240'}",,,,123062316,,2024-05
anti-social-behaviour,Force,"{'latitude': '51.506632', 'street': {'id': 1678507, 'name': 'On or near Theatre/concert Hall'}, 'longitude': '-0.127640'}",,,,123100163,,2024-05
anti-social-behaviour,Force,"{'latitude': '51.500396', 'street': {'id': 1680975, 'name': 'On or near Baylis Road'}, 'longitude': '-0.111082'}",,,,123102137,,2024-05
anti-social-behaviour,Force,"{'latitude': '51.510468', 'street': {'id': 1678029, 'name': 'On or near Leicester Square'}, 'longitude': '-0.130769'}",,,,123103897,,2024-05
anti-social-behaviour,Force,"{'latitude': '51.513090', 'street': {'id': 1677384, 'name': 'On or near Hopkins Street'}, 'longitude': '-0.135043'}",,,,123072918,,2024-05
anti-social-behaviour,Force,"{'latitude': '51.521458', 'street': {'id': 1678167, 'name': 'On or near Malet Street'}, 'longitude': '-0.130305'}",,,,123073115,,2024-05
anti-social-behaviour,Force,"{'latitude': '51.510468', 'street': {'id': 1678029, 'name': 'On or near Leicester Square'}, 'longitude': '-0.130769'}",,,,123073157,,2024-05
anti-social-behaviour,Force,"{'latitude': '51.514185', 'street': {'id': 1677307, 'name': 'On or near Berwick Street'}, 'longitude': '-0.135459'}",,,,123073292,,2024-05
anti-social-behaviour,Force,"{'latitude': '51.513205', 'street': {'id': 1678985, 'name': 'On or near Long Acre'}, 'longitude': '-0.124229'}",,,,123073669,,2024-05
anti-social-behaviour,Force,"{'latitude': '51.506553', 'street': {'id': 1682080, 'name': 'On or near Shopping Area'}, 'longitude': '-0.104775'}",,,,123073862,,2024-05
anti-social-behaviour,Force,"{'latitude': '51.512247', 'street': {'id': 1678100, 'name': 'On or near Gerrard Place'}, 'longitude': '-0.130120'}",,,,123073885,,2024-05
anti-social-behaviour,Force,"{'latitude': '51.509886', 'street': {'id': 1678385, 'name': 'On or near Irving Street'}, 'longitude': '-0.128646'}",,,,123073932,,2024-05
anti-social-behaviour,Force,"{'latitude': '51.517845', 'street': {'id': 1679284, 'name': 'On or near Further/higher Educational Building'}, 'longitude': '-0.121977'}",,,,123074092,,2024-05
anti-social-behaviour,Force,"{'latitude': '51.507725', 'street': {'id': 1678750, 'name': 'On or near Corner House Street'}, 'longitude': '-0.125708'}",,,,123074105,,2024-05
anti-social-behaviour,Force,"{'latitude': '51.510389', 'street': {'id': 1679043, 'name': 'On or near Bedford Street'}, 'longitude': '-0.124157'}",,,,123074225,,2024-05
anti-social-behaviour,Force,"{'latitude': '51.514064', 'street': {'id': 1679774, 'name': 'On or near Kean Street'}, 'longitude': '-0.118890'}",,,,123074596,,2024-05
anti-social-behaviour,Force,"{'latitude': '51.509044', 'street': {'id': 1679072, 'name': 'On or near John Adam Street'}, 'longitude': '-0.123247'}",,,,123074666,,2024-05
anti-social-behaviour,Force,"{'latitude': '51.511111', 'street': {'id': 1679082, 'name': 'On or near Henrietta Street'}, 'longitude': '-0.123710'}",,,,123074832,,2024-05
anti-social-behaviour,Force,"{'latitude': '51.515460', 'street': {'id': 1679674, 'name': 'On or near Wild Court'}, 'longitude': '-0.119611'}",,,,123074836,,2024-05
anti-social-behaviour,Force,"{'latitude': '51.511783', 'street': {'id': 1678199, 'name': 'On or near Nightclub'}, 'longitude': '-0.129778'}",,,,123075014,,2024-05
anti-social-behaviour,Force,"{'latitude': '51.502888', 'street': {'id': 1679979, 'name': 'On or near Chicheley Street'}, 'longitude': '-0.117319'}",,,,123075016,,2024-05
anti-social-behaviour,Force,"{'latitude': '51.513090', 'street': {'id': 1677384, 'name': 'On or near Hopkins Street'}, 'longitude': '-0.135043'}",,,,123075147,,2024-05
anti-social-behaviour,Force,"{'latitude': '51.511623', 'street': {'id': 1678738, 'name': 'On or near Rose Street'}, 'longitude': '-0.125951'}",,,,123075268,,2024-05
anti-social-behaviour,Force,"{'latitude': '51.497580', 'street': {'id': 1680887, 'name': 'On or near Police Station'}, 'longitude': '-0.111573'}",,,,123075366,,2024-05
anti-social-behaviour,Force,"{'latitude': '51.519162', 'street': {'id': 1677191, 'name': 'On or near Goodge Street'}, 'longitude': '-0.136308'}",,,,123075510,,2024-05
anti-social-behaviour,Force,"{'latitude': '51.503196', 'street': {'id': 1678183, 'name': 'On or near Downing Street'}, 'longitude': '-0.127032'}",,,,123075741,,2024-05
anti-social-behaviour,Force,"{'latitude': '51.509251', 'street': {'id': 1677545, 'name': ""On or near St James's Market""}, 'longitude': '-0.133398'}",,,,123075808,,2024-05
anti-social-behaviour,Force,"{'latitude': '51.515684', 'street': {'id': 1677259, 'name': 'On or near Nightclub'}, 'longitude': '-0.135874'}",,,,123076079,,2024-05
anti-social-behaviour,Force,"{'latitude': '51.496949', 'street': {'id': 1677316, 'name': 'On or near Artillery Row'}, 'longitude': '-0.135630'}",,,,123076460,,2024-05
anti-social-behaviour,Force,"{'latitude': '51.512855', 'street': {'id': 1678860, 'name': 'On or near B402'}, 'longitude': '-0.124820'}",,,,123076658,,2024-05
anti-social-behaviour,Force,"{'latitude': '51.498553', 'street': {'id': 1677378, 'name': 'On or near Caxton Street'}, 'longitude': '-0.135291'}",,,,123076950,,2024-05
anti-social-behaviour,Force,"{'latitude': '51.514536', 'street': {'id': 1676666, 'name': 'On or near Nightclub'}, 'longitude': '-0.140043'}",,,,123077013,,2024-05
anti-social-behaviour,Force,"{'latitude': '51.509396', 'street': {'id': 1678091, 'name': 'On or near Orange Street'}, 'longitude': '-0.130626'}",,,,123077172,,2024-05
anti-social-behaviour,Force,"{'latitude': '51.511623', 'street': {'id': 1678738, 'name': 'On or near Rose Street'}, 'longitude': '-0.125951'}",,,,123077183,,2024-05
anti-social-behaviour,Force,"{'latitude': '51.519933', 'street': {'id': 1677494, 'name': 'On or near Shopping Area'}, 'longitude': '-0.133899'}",,,,123077394,,2024-05
anti-social-behaviour,Force,"{'latitude': '51.509491', 'street': {'id': 1678539, 'name': 'On or near William Iv Street'}, 'longitude': '-0.125924'}",,,,123077396,,2024-05
anti-social-behaviour,Force,"{'latitude': '51.514286', 'street': {'id': 1677663, 'name': 'On or near Chapone Place'}, 'longitude': '-0.132818'}",,,,123077404,,2024-05
anti-social-behaviour,Force,"{'latitude': '51.515070', 'street': {'id': 1676927, 'name': 'On or near Shopping Area'}, 'longitude': '-0.138003'}",,,,123078211,,2024-05
anti-social-behaviour,Force,"{'latitude': '51.514286', 'street': {'id': 1677663, 'name': 'On or near Chapone Place'}, 'longitude': '-0.132818'}",,,,123078392,,2024-05
anti-social-behaviour,Force,"{'latitude': '51.514064', 'street': {'id': 1679774, 'name': 'On or near Kean Street'}, 'longitude': '-0.118890'}",,,,123054925,,2024-05
anti-social-behaviour,Force,"{'latitude': '51.510389', 'street': {'id': 1679043, 'name': 'On or near Bedford Street'}, 'longitude': '-0.124157'}",,,,123054913,,2024-05
anti-social-behaviour,Force,"{'latitude': '51.509491', 'street': {'id': 1678539, 'name': 'On or near William Iv Street'}, 'longitude': '-0.125924'}",,,,123054765,,2024-05
anti-social-behaviour,Force,"{'latitude': '51.496053', 'street': {'id': 1678355, 'name': ""On or near Bennett's Yard""},